[{"lat": 50.1220639499942, "id": 8225, "category": "atm", "name": "One And All", "lon": -5.53289830684662, "created_on": 1465943680}, {"lat": 60.1605345, "id": 42, "category": "default", "name": "Belle Modeste", "lon": 24.9390492, "created_on": 1397211665}, {"lat": 48.4377466, "id": 15, "category": "grocery", "name": "Slaters Meats", "lon": -123.3124115, "created_on": 1394219130}, {"lat": 50.0658333, "id": 33, "category": "default", "name": "kaktusy eshop", "lon": 14.3588965, "created_on": 1422120857}, {"lat": 51.5493776, "id": 3, "category": "food", "name": "Pembury Tavern", "lon": -0.0593789, "created_on": 1370785480}, {"lat": 60.4456862, "id": 4, "category": "shopping", "name": "Tietokonekauppa", "lon": 22.2818123, "created_on": 1417878506}, {"lat": 54.8370236, "id": 5, "category": "lodging", "name": "Bandholm Hotel", "lon": 11.4862062, "created_on": 1365921482}, {"lat": 39.2615749, "id": 8, "category": "default", "name": "SierraHosts.net", "lon": -121.0165666, "created_on": 1386794770}, {"lat": 60.169775, "id": 7, "category": "nightlife", "name": "Helkan Baari", "lon": 24.927098, "created_on": 1398852994}, {"lat": 39.7146512, "id": 10, "category": "default", "name": "Costa Rica Travel Market LLC", "lon": -104.9362682, "created_on": 1389447527}, {"lat": 50.0999576, "id": 9, "category": "attraction", "name": "Bio Oko", "lon": 14.4299522, "created_on": 1419019534}, {"lat": 42.3626795, "id": 12, "category": "shopping", "name": "MIT Coop", "lon": -71.0863982, "created_on": 1409879886}, {"lat": 13.052391, "id": 11, "category": "default", "name": "SurajShkathi", "lon": 80.2507557, "created_on": 1388228457}, {"lat": 55.6786451, "id": 14, "category": "food", "name": "The Dubliner", "lon": 12.5789419, "created_on": 1402145582}, {"lat": 37.7705183, "id": 6, "category": "default", "name": "Deborah Hodgson Vamp Couture", "lon": -122.4504132, "created_on": 1385666967}, {"lat": 52.5621339, "id": 16, "category": "food", "name": "Coalheavers Arms", "lon": -0.2457512, "created_on": 1370785039}, {"lat": -17.825695, "id": 17, "category": "lodging", "name": "Monomatapa Hotel", "lon": 31.0469154, "created_on": 1417043002}, {"lat": 41.713569, "id": 18, "category": "transport", "name": "E. S. LES ALEGRIES", "lon": 2.830864, "created_on": 1424272829}, {"lat": 46.0647594, "id": 19, "category": "food", "name": "Pizzeria OroStube", "lon": 11.1504525, "created_on": 1418985021}, {"lat": 52.3774607, "id": 20, "category": "transport", "name": "StarBikes Rental", "lon": 4.9080895, "created_on": 1421950763}, {"lat": 50.0859427, "id": 21, "category": "default", "name": "Electronic Tour Guide Rental Point, Art Elephants souvenir & gift shop", "lon": 14.4169321, "created_on": 1406348966}, {"lat": 50.2330492, "id": 22, "category": "default", "name": "Romana Dvo\u0159\u00e1kov\u00e1", "lon": 12.8808408, "created_on": 1387016981}, {"lat": 50.0763866, "id": 23, "category": "default", "name": "Locus Workspace - Slezsk\u00e1 | Coworkingov\u00e9 centrum", "lon": 14.4519789, "created_on": 1382458998}, {"lat": 50.0816786, "id": 27, "category": "default", "name": "STARSKY DIGITAL AGENCY", "lon": 14.4191508, "created_on": 1386581202}, {"lat": 50.0777622, "id": 28, "category": "default", "name": "GOURMETKAVA.CZ (v\u00fddejn\u00ed m\u00edsto na vy\u017e\u00e1d\u00e1n\u00ed emailem)", "lon": 14.4629394, "created_on": 1388703167}, {"lat": 49.6142365, "id": 31, "category": "default", "name": "Salva_Quardia", "lon": 17.2932786, "created_on": 1399892189}, {"lat": 50.0669199, "id": 34, "category": "default", "name": "Studio Najbrt", "lon": 14.3983579, "created_on": 1427992618}, {"lat": 50.1092795, "id": 35, "category": "shopping", "name": "Jeli-design | Interi\u00e9rov\u00fd design", "lon": 14.4747797, "created_on": 1386828545}, {"lat": 60.1623144, "id": 36, "category": "shopping", "name": "HUG BikeShop", "lon": 24.9259094, "created_on": 1427135702}, {"lat": 50.7156495, "id": 37, "category": "food", "name": "The Port Royal", "lon": -3.526299, "created_on": 1393702018}, {"lat": 40.4262919, "id": 38, "category": "food", "name": "Hard Rock Caf\u00e9", "lon": -3.6895592, "created_on": 1415272878}, {"lat": 40.4292318, "id": 39, "category": "lodging", "name": "Petit Palace President Castellana", "lon": -3.6881547, "created_on": 1415269399}, {"lat": 50.8687731, "id": 40, "category": "food", "name": "Alice Homemade", "lon": 4.4544669, "created_on": 1395080051}, {"lat": 52.493019, "id": 41, "category": "food", "name": "Room 77", "lon": 13.4179531, "created_on": 1365929649}, {"lat": 51.5255775, "id": 258, "category": "food", "name": "Nin Com Soup", "lon": -0.0876143, "created_on": 1421927553}, {"lat": 50.0950734, "id": 29, "category": "default", "name": "Justiz-Caps", "lon": 14.4534252, "created_on": 1389181307}, {"lat": 52.1989253, "id": 1, "category": "food", "name": "Devonshire Arms", "lon": 0.1390513, "created_on": 1370786241}, {"lat": -32.7187665, "id": 2, "category": "lodging", "name": "Port Stephens Motor Lodge", "lon": 152.150097, "created_on": 1412221903}, {"lat": 40.7525644171388, "id": 8226, "category": "shopping", "name": "Stack-Tech Computer Repair", "lon": -86.3466274738312, "created_on": 1465956215}, {"lat": 37.9580745, "id": 3928, "category": "cafe", "name": "Nova Rosti", "lon": -122.499287, "created_on": 1399646864}, {"lat": 40.3225161001552, "id": 8865, "category": "default", "name": "Advanced Computing ltd", "lon": 23.0456256866455, "created_on": 1479749583}, {"lat": 52.3670914, "id": 46, "category": "food", "name": "H\u00e4rtekrug", "lon": 9.7168731, "created_on": 1427731152}, {"lat": 52.3702884, "id": 47, "category": "default", "name": "Identit\u00e4tsstiftung GmbH", "lon": 9.7350293, "created_on": 1430907077}, {"lat": 39.9863889, "id": 50, "category": "default", "name": "Columbus Worship Center", "lon": -83.0055556, "created_on": 1386095442}, {"lat": 52.2313715, "id": 49, "category": "atm", "name": "Bobby Burger", "lon": 21.0032264, "created_on": 1418192330}, {"lat": 41.4047222, "id": 51, "category": "default", "name": "Saint John The Evangelist Roman Catholic Church", "lon": -74.325, "created_on": 1383436754}, {"lat": 30.4094827, "id": 52, "category": "default", "name": "Dezins Interactive", "lon": -91.0684555, "created_on": 1385449366}, {"lat": 38.9859, "id": 53, "category": "default", "name": "Mill Creek Community Church", "lon": -94.8606, "created_on": 1385566742}, {"lat": 33.608786, "id": 54, "category": "default", "name": "Color-Glide ColorGlidePro.com - paint brush replacement  product", "lon": -117.7114158, "created_on": 1385055371}, {"lat": 27.773935, "id": 55, "category": "attraction", "name": "Saint Petersburg Museum of History", "lon": -82.6305988, "created_on": 1408723158}, {"lat": 29.5241688, "id": 56, "category": "default", "name": "Law Office of Michael McLees", "lon": -98.5687186, "created_on": 1397232908}, {"lat": 37.7949855, "id": 60, "category": "shopping", "name": "Laundry Locker Kiosk", "lon": -122.4234775, "created_on": 1409361742}, {"lat": 43.6647999, "id": 61, "category": "cafe", "name": "Snakes & Lattes", "lon": -79.4130037, "created_on": 1403569846}, {"lat": 36.782283, "id": 58, "category": "default", "name": "\uc81c\uc0dd\ud55c\uc758\uc6d0 (Jesaeng Oriental Medicine Clinic)", "lon": 126.457458, "created_on": 1410875539}, {"lat": 37.7678512, "id": 65, "category": "shopping", "name": "Skunk Funk", "lon": -122.4223164, "created_on": 1420665190}, {"lat": 37.7882789, "id": 48, "category": "default", "name": "Pet Camp Cat Safari", "lon": -122.4461924, "created_on": 1420762098}, {"lat": 45.4752538, "id": 62, "category": "sports", "name": "Yogarte", "lon": 9.1394098, "created_on": 1374226786}, {"lat": 17.1565111, "id": 63, "category": "food", "name": "Ana's on the beach", "lon": -61.8495595, "created_on": 1415731770}, {"lat": 37.5555738, "id": 73, "category": "shopping", "name": "Cyclepath", "lon": -122.318096, "created_on": 1420753066}, {"lat": 43.6560303, "id": 57, "category": "nightlife", "name": "Grossman's Tavern", "lon": -79.3989471, "created_on": 1402686557}, {"lat": 51.4761795, "id": 67, "category": "food", "name": "The Birds Nest", "lon": -0.0226612, "created_on": 1390247659}, {"lat": 52.3655461, "id": 68, "category": "default", "name": "FreeJobz Amsterdam", "lon": 4.8917775, "created_on": 1387085629}, {"lat": 46.2065817, "id": 69, "category": "transport", "name": "Tamoil", "lon": 8.3190782, "created_on": 1401488003}, {"lat": 49.5946604, "id": 70, "category": "shopping", "name": "Vlasov\u00e9 studio Petra Nowakov\u00e1", "lon": 17.2422572, "created_on": 1424379744}, {"lat": 50.0996098, "id": 71, "category": "default", "name": "AntiRadary.NET s.r.o.", "lon": 14.3718615, "created_on": 1404836726}, {"lat": 49.6063251, "id": 72, "category": "default", "name": "Gappa Solutions s.r.o.", "lon": 17.2817969, "created_on": 1415875844}, {"lat": 35.2743463, "id": 76, "category": "default", "name": "iTek Graphics", "lon": -80.8215111, "created_on": 1405452629}, {"lat": 52.160142, "id": 74, "category": "food", "name": "snackbar \"De Hoefslag\"", "lon": 5.3636061, "created_on": 1383680703}, {"lat": 28.333289, "id": 79, "category": "food", "name": "Saim Orchid Japanese Restaraunt", "lon": -80.611025, "created_on": 1401472311}, {"lat": 51.0435838, "id": 78, "category": "nightlife", "name": "Pi-nuts", "lon": 3.7254069, "created_on": 1428009778}, {"lat": 30.2967459, "id": 82, "category": "food", "name": "Thai Kitchen", "lon": -97.7416594, "created_on": 1397301102}, {"lat": 52.0717185, "id": 80, "category": "default", "name": "Mansion Hill Veterinary Practice", "lon": -1.2759528, "created_on": 1416404770}, {"lat": 40.6873932, "id": 84, "category": "shopping", "name": "Brooklyn Flea", "lon": -73.9692312, "created_on": 1429857148}, {"lat": 47.3961491, "id": 83, "category": "nightlife", "name": "Le Gros Bar", "lon": 0.691889, "created_on": 1417187458}, {"lat": 53.3436522, "id": 85, "category": "grocery", "name": "Krust Bakery", "lon": -6.264294, "created_on": 1430919444}, {"lat": -37.79726, "id": 66, "category": "shopping", "name": "Polyester Books", "lon": 144.978844, "created_on": 1384001968}, {"lat": 52.3723322, "id": 44, "category": "food", "name": "Das kleine Museum", "lon": 9.7074453, "created_on": 1422368371}, {"lat": 31.7467994213077, "id": 9060, "category": "default", "name": "KAMRAN CHATTHA", "lon": 72.9191994667053, "created_on": 1483131024}, {"lat": 31.7519997301077, "id": 9061, "category": "default", "name": "KAMRAN CHATTHA", "lon": 72.9194784164429, "created_on": 1483131033}, {"lat": 45.1075649, "id": 86, "category": "default", "name": "Computel", "lon": 7.7508834, "created_on": 1412285393}, {"lat": 45.8489973, "id": 88, "category": "default", "name": "Viofarm", "lon": 23.0132835, "created_on": 1401431194}, {"lat": 49.8696994, "id": 89, "category": "grocery", "name": "Grow", "lon": 8.6500972, "created_on": 1382533057}, {"lat": 47.5489872, "id": 90, "category": "food", "name": "Tacoteca", "lon": 7.5865613, "created_on": 1393945321}, {"lat": 25.0181253, "id": 91, "category": "attraction", "name": "Jodie's Kitchen Cooking School", "lon": 121.5745838, "created_on": 1383742237}, {"lat": 49.897371, "id": 105, "category": "lodging", "name": "Sandman Hotel & Suites Winnipeg Airport", "lon": -97.2038827, "created_on": 1405578271}, {"lat": 32.94998, "id": 95, "category": "default", "name": "DiegoDev Group", "lon": -117.227693, "created_on": 1392330055}, {"lat": 33.1967248, "id": 96, "category": "default", "name": "Ares Armor", "lon": -117.3788832, "created_on": 1386790407}, {"lat": 33.164004, "id": 97, "category": "default", "name": "Heritage Senior Care", "lon": -117.348439, "created_on": 1388298618}, {"lat": 32.76434, "id": 98, "category": "default", "name": "Invincible Creative", "lon": -117.188709, "created_on": 1398989281}, {"lat": 32.7959837, "id": 99, "category": "default", "name": "Villalobos SD", "lon": -117.2529544, "created_on": 1386205120}, {"lat": 32.799441, "id": 101, "category": "default", "name": "Computer and Ink Store", "lon": -117.243776, "created_on": 1413057081}, {"lat": 33.1471342, "id": 102, "category": "default", "name": "San Marcos Dental Center", "lon": -117.2003136, "created_on": 1386206225}, {"lat": 40.6474989301615, "id": 14375, "category": "default", "name": "\u03a4\u03b1\u03c0\u03b5\u03c4\u03c3\u03b1\u03c1\u03af\u03b5\u03c2 \u03b1\u03c5\u03c4\u03bf\u03ba\u03b9\u03bd\u03ae\u03c4\u03c9\u03bd - \u039a\u0391\u03a1\u0391\u039c\u03a0\u0395\u03a1\u0397\u03a3 \u03a7\u03a1\u0397\u03a3\u03a4\u039f\u03a3", "lon": 22.9201626777649, "created_on": 1530718484}, {"lat": 39.1922528, "id": 124, "category": "food", "name": "Chens Hunam Chinese Restaurant", "lon": -96.6091199, "created_on": 1395401212}, {"lat": 47.3712326, "id": 104, "category": "food", "name": "Kafi Schoffel", "lon": 8.5438017, "created_on": 1389103279}, {"lat": 49.2788858, "id": 107, "category": "lodging", "name": "Sandman Hotel Vancouver City Centre", "lon": -123.1129606, "created_on": 1405584310}, {"lat": 50.9369979, "id": 106, "category": "food", "name": "Oscar Lounge", "lon": 6.9611641, "created_on": 1429988771}, {"lat": 49.2807244, "id": 108, "category": "cafe", "name": "Waves Coffee House", "lon": -123.1224892, "created_on": 1377270448}, {"lat": 31.7588235518399, "id": 9062, "category": "default", "name": "KAMRAN CHATTHA", "lon": 72.9114103317261, "created_on": 1483131048}, {"lat": 30.5499212, "id": 94, "category": "food", "name": "Great Wall Express", "lon": -97.8533226, "created_on": 1397418338}, {"lat": 31.7580390203886, "id": 9063, "category": "default", "name": "KAMRAN CHATTHA", "lon": 72.9173648357391, "created_on": 1483131059}, {"lat": 50.6973488, "id": 112, "category": "default", "name": "Royal Bohemian Crystal", "lon": 15.2702063, "created_on": 1384862630}, {"lat": 51.5290096, "id": 113, "category": "lodging", "name": "Clink 261", "lon": -0.1200706, "created_on": 1394004656}, {"lat": 47.0655785, "id": 114, "category": "default", "name": "realraum", "lon": 15.4505767, "created_on": 1407761721}, {"lat": 59.4445706, "id": 115, "category": "shopping", "name": "Camping Dalen", "lon": 8.0075507, "created_on": 1404740055}, {"lat": 51.5271838, "id": 116, "category": "default", "name": "Himalayan People", "lon": -0.088663, "created_on": 1385968603}, {"lat": 50.2433201, "id": 117, "category": "default", "name": "Xcovers.cz", "lon": 16.1059363, "created_on": 1418472309}, {"lat": 59.3135253, "id": 118, "category": "food", "name": "Dionysos", "lon": 18.0850366, "created_on": 1388249810}, {"lat": 55.6771501, "id": 119, "category": "nightlife", "name": "Caf\u00e8 Guldhornene", "lon": 12.5691017, "created_on": 1426601770}, {"lat": 55.6773855, "id": 120, "category": "nightlife", "name": "Heidi's Bier Bar", "lon": 12.5694568, "created_on": 1426601770}, {"lat": 19.8881185, "id": 121, "category": "food", "name": "Utopia Bar & Restaurant", "lon": 102.1401794, "created_on": 1402055299}, {"lat": 49.9174351, "id": 122, "category": "default", "name": "CA Radost", "lon": 17.9193025, "created_on": 1394311692}, {"lat": 51.5176692, "id": 123, "category": "default", "name": "CeX", "lon": -0.1343142, "created_on": 1414337601}, {"lat": 31.7713751506284, "id": 9064, "category": "default", "name": "KAMRAN CHATTHA", "lon": 72.8915405273437, "created_on": 1483131113}, {"lat": 45.5019349, "id": 125, "category": "default", "name": "Juniorbit Sas - Informatica", "lon": 9.1370482, "created_on": 1390325167}, {"lat": 59.2961262, "id": 127, "category": "food", "name": "Sushibar Satzuma", "lon": 18.053015, "created_on": 1405180962}, {"lat": 50.1008874, "id": 87, "category": "cafe", "name": "Alchymista", "lon": 14.4171779, "created_on": 1389354644}, {"lat": 51.0851087, "id": 92, "category": "lodging", "name": "Sandman Hotel & Suites Calgary West", "lon": -114.2085113, "created_on": 1405576634}, {"lat": 31.7223266802243, "id": 9065, "category": "default", "name": "KAMRAN CHATTHA", "lon": 72.8489685058594, "created_on": 1483131120}, {"lat": 46.7716796, "id": 129, "category": "default", "name": "Chaos Cowork Cluj", "lon": 23.5898366, "created_on": 1413043777}, {"lat": 43.6931896, "id": 135, "category": "default", "name": "Benjamin Sports Inc.", "lon": -79.3423214, "created_on": 1409042966}, {"lat": 53.3675802, "id": 132, "category": "grocery", "name": "J. H. Mann - Fishmonger", "lon": -1.497067, "created_on": 1398233116}, {"lat": 55.8318061, "id": 133, "category": "cafe", "name": "The Brooklyn Caf\u00e9", "lon": -4.2796174, "created_on": 1389704296}, {"lat": 41.9761838, "id": 134, "category": "default", "name": "Farm\u00e0cia Simon Bombi", "lon": 2.8198917, "created_on": 1432506902}, {"lat": 49.8824414, "id": 163, "category": "lodging", "name": "Sandman Hotel & Suites Kelowna", "lon": -119.440302, "created_on": 1405579918}, {"lat": 53.7678697, "id": 136, "category": "lodging", "name": "G\u00e4stehof Apolony", "lon": 10.7680096, "created_on": 1389222642}, {"lat": 50.0180775, "id": 137, "category": "lodging", "name": "Chalupa Kom\u0148\u00e1tka", "lon": 16.8796875, "created_on": 1385501721}, {"lat": 31.8256484960194, "id": 9066, "category": "default", "name": "KAMRAN CHATTHA", "lon": 73.0680084228516, "created_on": 1483131135}, {"lat": 61.4991966, "id": 139, "category": "food", "name": "Vegemesta", "lon": 23.7547799, "created_on": 1405258104}, {"lat": 54.4358207, "id": 140, "category": "attraction", "name": "University of Cumbria Ambleside Campus", "lon": -2.9642364, "created_on": 1401468698}, {"lat": 48.5774555, "id": 142, "category": "cafe", "name": "Burgcaf\u00e9", "lon": 13.4704152, "created_on": 1422638677}, {"lat": 48.2052633, "id": 143, "category": "food", "name": "Tian Restaurant", "lon": 16.3745292, "created_on": 1416232799}, {"lat": 27.777371, "id": 145, "category": "food", "name": "400 Beach Seafood", "lon": -82.631548, "created_on": 1418692590}, {"lat": 27.7709052, "id": 146, "category": "food", "name": "Ferg's Sports Bar & Grill", "lon": -82.6523574, "created_on": 1408767986}, {"lat": 39.3475198, "id": 154, "category": "food", "name": "Mama Rosa Rotisserie & Grill", "lon": -76.4505536, "created_on": 1396080298}, {"lat": 49.9335938, "id": 147, "category": "attraction", "name": "D\u011btsk\u00e9 Centrum Hob\u00edk (\u0161kolka, krou\u017eky)", "lon": 14.3165338, "created_on": 1385547188}, {"lat": 49.9208226, "id": 148, "category": "default", "name": "gobit.cz - umo\u017e\u0148uje p\u0159ij\u00edmat platby v bitcoinech", "lon": 14.2364788, "created_on": 1385681450}, {"lat": 57.6549895, "id": 149, "category": "default", "name": "Primaleva Massage", "lon": 11.9017638, "created_on": 1396344165}, {"lat": 52.3819756, "id": 150, "category": "attraction", "name": "Filmhuis Cavia", "lon": 4.8703456, "created_on": 1396538879}, {"lat": 42.8431935, "id": 151, "category": "food", "name": "Dolce Vita", "lon": 74.5905907, "created_on": 1375365302}, {"lat": 45.9763815, "id": 152, "category": "food", "name": "Lago delle Rose", "lon": 8.4027712, "created_on": 1404213034}, {"lat": 40.9076669, "id": 159, "category": "shopping", "name": "Macy's", "lon": -74.5519558, "created_on": 1394677112}, {"lat": 31.7125521, "id": 156, "category": "shopping", "name": "Hawsib Information Technologies", "lon": 35.2243887, "created_on": 1398541713}, {"lat": 51.3677106, "id": 157, "category": "food", "name": "Adana Grill", "lon": 6.1510963, "created_on": 1384007933}, {"lat": 51.3674702, "id": 158, "category": "food", "name": "Joseph Grill", "lon": 6.1511367, "created_on": 1383999916}, {"lat": 40.9073762, "id": 160, "category": "shopping", "name": "Lord & Taylor", "lon": -74.5552585, "created_on": 1394676758}, {"lat": 28.1000502, "id": 165, "category": "food", "name": "China City", "lon": -82.3995584, "created_on": 1395115329}, {"lat": 51.8453363, "id": 161, "category": "food", "name": "De Nieuwe Winkel", "lon": 5.8688296, "created_on": 1413379588}, {"lat": 55.9317618, "id": 162, "category": "food", "name": "Subway", "lon": 37.5202352, "created_on": 1384022274}, {"lat": 45.4001728, "id": 164, "category": "default", "name": "Sun of A Gun", "lon": -75.7115951, "created_on": 1398793100}, {"lat": 45.4264515, "id": 170, "category": "default", "name": "http://www.themodernshop.ca/", "lon": -75.6939621, "created_on": 1394239136}, {"lat": 47.6648179, "id": 171, "category": "shopping", "name": "Counterbalance Bicycles", "lon": -122.2958156, "created_on": 1397057901}, {"lat": 51.4767866, "id": 166, "category": "default", "name": "CeX Cardiff", "lon": -3.1787073, "created_on": 1417699718}, {"lat": 48.1442725, "id": 167, "category": "default", "name": "Progressbar", "lon": 17.1065474, "created_on": 1365876147}, {"lat": 50.0864594, "id": 168, "category": "food", "name": "U Mal\u00ed\u0159\u016f", "lon": 14.4053181, "created_on": 1429107086}, {"lat": 46.5183958, "id": 169, "category": "nightlife", "name": "QWERTZ", "lon": 6.6340684, "created_on": 1417216944}, {"lat": 32.7478087, "id": 131, "category": "nightlife", "name": "Rooted Kava Bar", "lon": -117.1297638, "created_on": 1402005836}, {"lat": -37.80524, "id": 130, "category": "nightlife", "name": "Grumpy's Green", "lon": 144.983027, "created_on": 1390044177}, {"lat": 53.284784, "id": 128, "category": "default", "name": "Michal Photo", "lon": -6.1327079, "created_on": 1388753318}, {"lat": 49.7808809, "id": 173, "category": "default", "name": "Andrago Winery", "lon": 14.4503536, "created_on": 1412783131}, {"lat": 48.8431028, "id": 175, "category": "shopping", "name": "John Landot", "lon": 2.2443054, "created_on": 1373125113}, {"lat": 49.296331, "id": 189, "category": "lodging", "name": "Sandman Hotel Castlegar", "lon": -117.6555992, "created_on": 1405579333}, {"lat": 37.7937071, "id": 180, "category": "lodging", "name": "Pacific Tradewinds Hostel", "lon": -122.4042094, "created_on": 1365922552}, {"lat": 51.0859286, "id": 179, "category": "default", "name": "soon bitcoinkiosk.ch", "lon": 17.016939, "created_on": 1394048908}, {"lat": 30.3958149, "id": 183, "category": "food", "name": "Bamboo Bistro North", "lon": -97.7196383, "created_on": 1397269594}, {"lat": -34.8662606, "id": 181, "category": "default", "name": "Farmacia Optica Agostini", "lon": -58.0425912, "created_on": 1401047989}, {"lat": 47.9860263, "id": 182, "category": "shopping", "name": "Ulrich Buhmann", "lon": 10.1798307, "created_on": 1385468467}, {"lat": 30.3986564, "id": 185, "category": "food", "name": "Bombay Bistro", "lon": -97.7474271, "created_on": 1397272545}, {"lat": 50.0984671, "id": 184, "category": "default", "name": "brmlab", "lon": 14.4359065, "created_on": 1362308915}, {"lat": 27.773918, "id": 194, "category": "food", "name": "The Ale and the Witch", "lon": -82.633613, "created_on": 1416843973}, {"lat": 42.7621292, "id": 187, "category": "lodging", "name": "EcoHotel Gora", "lon": 27.8294873, "created_on": 1418307770}, {"lat": 43.5495948, "id": 193, "category": "shopping", "name": "Euro Flowers", "lon": -79.5876526, "created_on": 1426900708}, {"lat": 52.3739428, "id": 190, "category": "cafe", "name": "Bohne", "lon": 9.7064773, "created_on": 1418634218}, {"lat": 55.8654691, "id": 192, "category": "default", "name": "CeX Glasgow Sauchiehall", "lon": -4.2627761, "created_on": 1408378523}, {"lat": 50.9815732, "id": 215, "category": "lodging", "name": "Sandman Hotel & Suites Calgary South", "lon": -114.0452219, "created_on": 1405576418}, {"lat": 39.0408505, "id": 199, "category": "food", "name": "King Wok", "lon": -94.4175927, "created_on": 1396332282}, {"lat": 46.0384428, "id": 195, "category": "transport", "name": "Area di Servizio Petrol-Airport", "lon": 11.1230431, "created_on": 1423738983}, {"lat": 10.556875, "id": 197, "category": "food", "name": "Nick's Cafe", "lon": -61.415486, "created_on": 1429528825}, {"lat": 39.2160131, "id": 198, "category": "lodging", "name": "Affittacamere B&B Cagliari Novecento", "lon": 9.1111319, "created_on": 1418408492}, {"lat": 39.0402008, "id": 201, "category": "food", "name": "Mama Garden", "lon": -94.4160484, "created_on": 1396333406}, {"lat": 40.4351252, "id": 200, "category": "food", "name": "Bofinn", "lon": -3.6835198, "created_on": 1415272730}, {"lat": -23.5580422180441, "id": 14683, "category": "shopping", "name": "KriptoBR", "lon": -46.6600996255875, "created_on": 1534775809}, {"lat": 40.4365907, "id": 202, "category": "food", "name": "Tamero", "lon": -3.6865757, "created_on": 1415272615}, {"lat": 40.437361, "id": 203, "category": "food", "name": "La \u00darsula", "lon": -3.6865518, "created_on": 1403285375}, {"lat": 40.437451, "id": 204, "category": "food", "name": "La Taberna", "lon": -3.6865027, "created_on": 1415272642}, {"lat": 40.4361646, "id": 205, "category": "food", "name": "La Armonia", "lon": -3.6848207, "created_on": 1415272509}, {"lat": 40.4361971, "id": 206, "category": "food", "name": "Mes\u00f3n 5Jotas", "lon": -3.6862478, "created_on": 1415272593}, {"lat": 40.4364074, "id": 207, "category": "food", "name": "Ori", "lon": -3.6861892, "created_on": 1415272574}, {"lat": 40.4351692, "id": 208, "category": "food", "name": "El S\u00e9ptimo", "lon": -3.6849646, "created_on": 1415272698}, {"lat": 40.4352013, "id": 209, "category": "food", "name": "El Asador de Aranda", "lon": -3.6844928, "created_on": 1415272713}, {"lat": 52.5177555, "id": 211, "category": "default", "name": "do you space", "lon": 13.4581799, "created_on": 1407061614}, {"lat": 47.063834, "id": 212, "category": "shopping", "name": "Fahrradk\u00fcche Graz", "lon": 15.4423455, "created_on": 1403451621}, {"lat": 52.5133689, "id": 213, "category": "shopping", "name": "Tricky Tunes", "lon": 13.462218, "created_on": 1380906332}, {"lat": 60.1645366, "id": 214, "category": "default", "name": "Helsinki Shooting Club", "lon": 24.9327511, "created_on": 1409162341}, {"lat": 43.6422697, "id": 172, "category": "lodging", "name": "Stage West", "lon": -79.6311358, "created_on": 1405578763}, {"lat": 49.8807247, "id": 176, "category": "attraction", "name": "Doctor Recommended", "lon": -119.504094, "created_on": 1385815253}, {"lat": 39.9991059, "id": 177, "category": "food", "name": "Moe's Original Bar B Que", "lon": -105.2539748, "created_on": 1413064829}, {"lat": 48.8293565716664, "id": 8227, "category": "default", "name": "L'atelier de l'\u00e9ph\u00e9m\u00e8re", "lon": 2.36894845962524, "created_on": 1465975365}, {"lat": 48.2046409519133, "id": 9528, "category": "default", "name": "Stadler V\u00f6lkel Rechtsanw\u00e4lte", "lon": 16.3740867376328, "created_on": 1488455740}, {"lat": 42.6402694, "id": 219, "category": "default", "name": "Organica: Garden Supply & Hydroponics", "lon": -73.784384, "created_on": 1402449591}, {"lat": 37.4269015, "id": 221, "category": "default", "name": "Red Door Movie Rental", "lon": -122.1479633, "created_on": 1415410545}, {"lat": 42.3636635, "id": 222, "category": "food", "name": "VeggieGalaxy", "lon": -71.1011293, "created_on": 1367401404}, {"lat": 39.9724031, "id": 226, "category": "shopping", "name": "The Bicycle Stable", "lon": -75.1345113, "created_on": 1418872293}, {"lat": 30.2689156, "id": 227, "category": "food", "name": "Thai Passion - Downtown", "lon": -97.7428345, "created_on": 1397301292}, {"lat": 46.5637114, "id": 318, "category": "lodging", "name": "Bergasthof Pl\u00f6rr", "lon": 11.4136741, "created_on": 1395831877}, {"lat": 45.888989, "id": 223, "category": "grocery", "name": "Drogheria Micheli", "lon": 11.0439284, "created_on": 1423589906}, {"lat": 48.1471429, "id": 224, "category": "shopping", "name": "Silver Moon", "lon": 17.1188022, "created_on": 1393556209}, {"lat": 51.9151473, "id": 225, "category": "lodging", "name": "Hotel van Walsum", "lon": 4.4643255, "created_on": 1392415051}, {"lat": 39.1850563, "id": 228, "category": "food", "name": "Green Tea Sushi Bar", "lon": -96.5740607, "created_on": 1395400820}, {"lat": 35.572302, "id": 230, "category": "lodging", "name": "Mariner's Inn", "lon": -121.1120376, "created_on": 1388651481}, {"lat": 43.1550576, "id": 232, "category": "default", "name": "Netsville", "lon": -77.6189344, "created_on": 1388441567}, {"lat": 40.4326692, "id": 229, "category": "nightlife", "name": "Callej\u00f3n de Serrano", "lon": -3.6872715, "created_on": 1409824787}, {"lat": 45.6723056, "id": 242, "category": "shopping", "name": "Rooks Comics and Games", "lon": -111.0740236, "created_on": 1383176751}, {"lat": 40.7616461, "id": 244, "category": "food", "name": "Pie Hole", "lon": -111.8885341, "created_on": 1389025552}, {"lat": 53.2588316, "id": 233, "category": "default", "name": "Rechtsanwalt Daniel Dietrich", "lon": 7.924502, "created_on": 1383905170}, {"lat": 51.5821466, "id": 234, "category": "default", "name": "M & M Hair and Beauty", "lon": -0.3323122, "created_on": 1414404490}, {"lat": 51.5821146, "id": 235, "category": "default", "name": "CeX Harrow", "lon": -0.3323591, "created_on": 1417699719}, {"lat": 51.0597214, "id": 236, "category": "default", "name": "Whitespace", "lon": 3.7326004, "created_on": 1424461007}, {"lat": 51.0547053, "id": 237, "category": "nightlife", "name": "5 voor 12", "lon": 3.7215045, "created_on": 1428010563}, {"lat": 12.9280252, "id": 238, "category": "food", "name": "Pattaya Beer Garden", "lon": 100.874346, "created_on": 1393939077}, {"lat": 45.4609305, "id": 240, "category": "default", "name": "MBR Architettura", "lon": 9.1061094, "created_on": 1374227669}, {"lat": 39.7548245, "id": 247, "category": "default", "name": "Unleaded Group", "lon": -104.9871359, "created_on": 1418083670}, {"lat": 54.315705, "id": 243, "category": "food", "name": "Friesenkate", "lon": 8.6083517, "created_on": 1388764725}, {"lat": 53.2039061, "id": 245, "category": "food", "name": "3 Amigos", "lon": -6.1011288, "created_on": 1390081801}, {"lat": 48.191622, "id": 246, "category": "cafe", "name": "Cafe & Bar Diesels", "lon": 16.3951162, "created_on": 1401361632}, {"lat": -34.596169, "id": 248, "category": "food", "name": "Porto Pirata", "lon": -58.3732278, "created_on": 1404804983}, {"lat": 42.6540939, "id": 218, "category": "cafe", "name": "The French Press Cafe & Creperie", "lon": -73.7504154, "created_on": 1392000270}, {"lat": 45.4797273, "id": 250, "category": "food", "name": "EDA Milano", "lon": 9.2210821, "created_on": 1401180699}, {"lat": 37.7510094, "id": 253, "category": "food", "name": "Two Brothers BBQ Woodlawn", "lon": -97.2617458, "created_on": 1396010273}, {"lat": 30.3578376, "id": 254, "category": "food", "name": "Pho Thaison Vietnamese Cuisine", "lon": -97.7329828, "created_on": 1397299467}, {"lat": 54.6726313, "id": 255, "category": "food", "name": "Pil\u0117nai", "lon": 25.2795982, "created_on": 1405720718}, {"lat": 42.8747552, "id": 256, "category": "lodging", "name": "\u0410\u0437\u0430\u0440\u0435\u044f", "lon": 24.639129, "created_on": 1386712407}, {"lat": 51.049848, "id": 257, "category": "shopping", "name": "Gameswap", "lon": 3.7213797, "created_on": 1411820435}, {"lat": 59.3117663, "id": 217, "category": "cafe", "name": "Twang", "lon": 18.0788131, "created_on": 1400745515}, {"lat": 52.730964493116, "id": 8228, "category": "default", "name": "Detektywi Gorz\u00f3w", "lon": 15.23606300354, "created_on": 1466020184}, {"lat": 53.2710389, "id": 280, "category": "attraction", "name": "Gospodarstwo Agroturystyczno - Ekologiczne\"Stajnia Le\u017ano\"", "lon": 19.7032346, "created_on": 1386944559}, {"lat": 39.9665561, "id": 264, "category": "food", "name": "PYT", "lon": -75.1391589, "created_on": 1418872254}, {"lat": 48.4506331, "id": 263, "category": "lodging", "name": "Apartm\u00e1n ajaj", "lon": 18.9057165, "created_on": 1385830645}, {"lat": 37.4855589, "id": 266, "category": "default", "name": "It Is Vapor", "lon": -122.2264733, "created_on": 1419672706}, {"lat": 45.869228, "id": 265, "category": "shopping", "name": "Bertamini", "lon": 10.8760253, "created_on": 1433312817}, {"lat": 42.3636159, "id": 269, "category": "food", "name": "Moksa", "lon": -71.1010542, "created_on": 1399490129}, {"lat": 53.6528377, "id": 267, "category": "default", "name": "n7media - Agentur f\u00fcr Kommunikations- und Webdesign", "lon": 10.163109, "created_on": 1389110463}, {"lat": 51.6267552, "id": 268, "category": "default", "name": "Kunstkopien in \u00d6l auf Leinwand - Dorothea Adam", "lon": 9.0330749, "created_on": 1400621284}, {"lat": 42.9630238, "id": 273, "category": "food", "name": "One Stop Coney Shop", "lon": -85.6645169, "created_on": 1393649512}, {"lat": -32.8883981, "id": 270, "category": "lodging", "name": "Hotel San Mart\u00edn", "lon": -68.8448455, "created_on": 1373401799}, {"lat": 45.6771049, "id": 271, "category": "food", "name": "Pizzeria Tiepolo", "lon": 12.2857136, "created_on": 1398602987}, {"lat": 52.4888868, "id": 272, "category": "shopping", "name": "Otherland", "lon": 13.3947046, "created_on": 1381173257}, {"lat": 30.4287281, "id": 278, "category": "cafe", "name": "Minh's Cafe", "lon": -97.7504309, "created_on": 1397296997}, {"lat": 53.2000961, "id": 274, "category": "lodging", "name": "Pole namiotowe", "lon": 19.6458031, "created_on": 1400001308}, {"lat": -33.0268673, "id": 275, "category": "lodging", "name": "La Casa del Almirante", "lon": -71.5651245, "created_on": 1403486149}, {"lat": 45.5815867, "id": 276, "category": "default", "name": "michele silvestri", "lon": 8.1048822, "created_on": 1397052767}, {"lat": 47.3810339, "id": 277, "category": "attraction", "name": "Das Russische Sprachstudio", "lon": 8.5338035, "created_on": 1374240336}, {"lat": 40.7389191, "id": 282, "category": "default", "name": "Steve Alper DMD", "lon": -73.9907073, "created_on": 1385489709}, {"lat": 52.1549622, "id": 283, "category": "food", "name": "Jia", "lon": 5.3745371, "created_on": 1387841036}, {"lat": 48.1872898, "id": 284, "category": "default", "name": "BOTENDIENST|QUICKTRANSPORT.AT", "lon": 16.3733152, "created_on": 1414180363}, {"lat": 26.6428482, "id": 288, "category": "food", "name": "ZCr\u00eapes Caf\u00e9", "lon": -81.86325, "created_on": 1393078866}, {"lat": 60.1603553, "id": 286, "category": "grocery", "name": "K-Market J\u00e4tk\u00e4saari", "lon": 24.9195985, "created_on": 1432929222}, {"lat": 50.8493957, "id": 287, "category": "lodging", "name": "La Porte Coch\u00e8re", "lon": 2.882953, "created_on": 1431604176}, {"lat": 40.5009856, "id": 292, "category": "default", "name": "Bars 'N Beats Recording Studio", "lon": -74.6529196, "created_on": 1387380611}, {"lat": 60.1637887, "id": 289, "category": "food", "name": "Spis", "lon": 24.9478673, "created_on": 1417000702}, {"lat": 45.7703, "id": 290, "category": "default", "name": "PerronHosting.com", "lon": -73.978673, "created_on": 1392585150}, {"lat": 37.7720246, "id": 296, "category": "grocery", "name": "Cups and Cakes Bakery", "lon": -122.4092269, "created_on": 1365918799}, {"lat": 60.193792, "id": 293, "category": "lodging", "name": "Cheapsleep Hostel", "lon": 24.956026, "created_on": 1385485677}, {"lat": 13.8635545, "id": 295, "category": "default", "name": "\u0e01\u0e2d\u0e07\u0e15\u0e33\u0e23\u0e27\u0e08\u0e2a\u0e37\u0e48\u0e2d\u0e2a\u0e32\u0e23", "lon": 100.6171651, "created_on": 1421255818}, {"lat": 35.4950363, "id": 298, "category": "food", "name": "Lido Asian Cuisine", "lon": -97.5317178, "created_on": 1397053676}, {"lat": 49.220221, "id": 297, "category": "default", "name": "?", "lon": 17.6494571, "created_on": 1417178591}, {"lat": 8.61765671527483, "id": 14298, "category": "shopping", "name": "MERLYS BOUTIQUE", "lon": -70.2566242218018, "created_on": 1529772565}, {"lat": 48.7096216, "id": 259, "category": "default", "name": "Romantikresort", "lon": 13.2427051, "created_on": 1366300752}, {"lat": 52.4097888162611, "id": 8418, "category": "default", "name": "www.Manunu.eu", "lon": 16.9013983011246, "created_on": 1470985470}, {"lat": 48.2243996, "id": 301, "category": "default", "name": "Masshemden Atelier Voglhuber", "lon": 16.3421012, "created_on": 1401966552}, {"lat": 43.4496827, "id": 321, "category": "default", "name": "Sara's KW Driving Academy", "lon": -80.4910633, "created_on": 1395248839}, {"lat": 35.2115934, "id": 310, "category": "food", "name": "Padthai Thai Restaurant", "lon": -97.4422524, "created_on": 1397052068}, {"lat": 37.3744381, "id": 304, "category": "default", "name": "Cl\u00ednica Lucq", "lon": -5.9786981, "created_on": 1385854474}, {"lat": 59.3457035, "id": 305, "category": "default", "name": "Alternativh\u00e4lsan \u00d6stermalm", "lon": 18.0954851, "created_on": 1386234831}, {"lat": 47.3723846, "id": 306, "category": "default", "name": "Peyer Fine Art GmbH", "lon": 8.5409899, "created_on": 1384974419}, {"lat": 37.585497, "id": 308, "category": "food", "name": "\uc774\uc790\uce74\uc57c \ub3d9\uacbd\uad6c\ub77d\ubd80", "lon": 127.0292663, "created_on": 1404008794}, {"lat": 49.6124609, "id": 309, "category": "shopping", "name": "Okrasn\u00e1 \u0161kolka Dro\u017ed\u00edn", "lon": 17.3340746, "created_on": 1426093958}, {"lat": 41.2498239, "id": 311, "category": "default", "name": "CoVis CoWorking", "lon": -96.0826749, "created_on": 1385474327}, {"lat": 27.7713227, "id": 322, "category": "default", "name": "Paper Street Market", "lon": -82.6473269, "created_on": 1418747200}, {"lat": 52.3881503, "id": 313, "category": "food", "name": "boca gastrobar", "lon": 9.7408566, "created_on": 1427731810}, {"lat": 60.0195582, "id": 315, "category": "food", "name": "Portside", "lon": 22.5063515, "created_on": 1422028740}, {"lat": 35.663793, "id": 316, "category": "nightlife", "name": "awabar", "lon": 139.732237, "created_on": 1414622890}, {"lat": 47.5054819, "id": 317, "category": "lodging", "name": "Paprika Hostel", "lon": 19.0614269, "created_on": 1403522814}, {"lat": 37.9776512, "id": 319, "category": "default", "name": "\u039a\u03cc\u03bc\u03bc\u03b1 \u03a0\u03b5\u03b9\u03c1\u03b1\u03c4\u03ce\u03bd \u0395\u03bb\u03bb\u03ac\u03b4\u03b1\u03c2 - Pirate Party of Greece - \u039a\u03b5\u03bd\u03c4\u03c1\u03b9\u03ba\u03cc \u0393\u03c1\u03b1\u03c6\u03b5\u03af\u03bf", "lon": 23.7282673, "created_on": 1387065943}, {"lat": 35.0957414, "id": 303, "category": "default", "name": "New Mexico Tea Company", "lon": -106.658747, "created_on": 1366300638}, {"lat": 27.8668929, "id": 323, "category": "food", "name": "Yummy Thai", "lon": -82.6450904, "created_on": 1395123772}, {"lat": 39.0150333, "id": 333, "category": "food", "name": "Oriental Express", "lon": -95.7605191, "created_on": 1395823521}, {"lat": 51.0099889, "id": 302, "category": "lodging", "name": "Sandman Hotel Revelstoke", "lon": -118.2180204, "created_on": 1405581964}, {"lat": 52.3285705, "id": 325, "category": "default", "name": "Lumen GmbH", "lon": 9.7754914, "created_on": 1430906697}, {"lat": 52.2002489, "id": 326, "category": "default", "name": "Centrum Mebli Rattanowych i Stylowych", "lon": 21.0776991, "created_on": 1403104868}, {"lat": 52.2248906, "id": 327, "category": "default", "name": "Elektro-Instalacje", "lon": 20.9573612, "created_on": 1391106738}, {"lat": -8.4939982, "id": 328, "category": "lodging", "name": "Viceroy Bali", "lon": 115.2775511, "created_on": 1407564935}, {"lat": 60.1875733, "id": 330, "category": "grocery", "name": "K-Market Mansku", "lon": 24.918532, "created_on": 1428655290}, {"lat": 32.0700275, "id": 331, "category": "attraction", "name": "michal kindergarden", "lon": 34.773014, "created_on": 1387227911}, {"lat": 32.091112, "id": 332, "category": "default", "name": "Didoo Cafe", "lon": 34.787301, "created_on": 1391209696}, {"lat": 39.0278373, "id": 334, "category": "food", "name": "Asian Cafe", "lon": -95.7254529, "created_on": 1395821389}, {"lat": 25.7805541, "id": 335, "category": "lodging", "name": "Clevelander Hotel", "lon": -80.1309841, "created_on": 1390882878}, {"lat": 39.8231819, "id": 339, "category": "default", "name": "Penn Animal Hospital", "lon": -75.8819666, "created_on": 1391293171}, {"lat": 52.1073717, "id": 336, "category": "default", "name": "Aurelius Interactive", "lon": 20.6412159, "created_on": 1381316515}, {"lat": 50.0380472, "id": 337, "category": "default", "name": "Bezpol", "lon": 22.0338827, "created_on": 1391542470}, {"lat": 49.223973, "id": 338, "category": "cafe", "name": "Liter\u00e1rna kaviare\u0148", "lon": 18.739157, "created_on": 1367599242}, {"lat": -37.8694322, "id": 324, "category": "default", "name": "Eclectico", "lon": 144.9803739, "created_on": 1384001715}, {"lat": 64.1540263, "id": 300, "category": "lodging", "name": "Blue House B&B", "lon": -21.9986506, "created_on": 1397329635}, {"lat": 47.1119916118434, "id": 8231, "category": "default", "name": "J\u00fcrg Kradolfer", "lon": 7.22741603851318, "created_on": 1466061737}, {"lat": 46.1934179, "id": 341, "category": "default", "name": "Venusia", "lon": 6.1407722, "created_on": 1403706028}, {"lat": 38.5956986, "id": 345, "category": "shopping", "name": "Arden Jewelers", "lon": -121.3983679, "created_on": 1414224449}, {"lat": -2.8969103, "id": 344, "category": "lodging", "name": "Apartamentos Otorongo", "lon": -79.0139429, "created_on": 1401231528}, {"lat": 27.7713544, "id": 349, "category": "shopping", "name": "The Trunk Stylists", "lon": -82.6426345, "created_on": 1418225950}, {"lat": 49.200092, "id": 366, "category": "food", "name": "RE-UP BBQ", "lon": -122.9115154, "created_on": 1398449168}, {"lat": 53.7995573, "id": 348, "category": "default", "name": "CeX Leeds", "lon": -1.5443754, "created_on": 1414403971}, {"lat": 48.1148885, "id": 353, "category": "shopping", "name": "The Broken Spoke", "lon": -122.7567278, "created_on": 1411768866}, {"lat": 50.0392863, "id": 351, "category": "default", "name": "JSV International Assistant Service", "lon": 14.3323303, "created_on": 1418556044}, {"lat": 45.5046824, "id": 364, "category": "cafe", "name": "Papa G's", "lon": -122.6421431, "created_on": 1383705816}, {"lat": 52.5313206, "id": 354, "category": "default", "name": "artx Designagentur Berlin", "lon": 13.4231381, "created_on": 1387368257}, {"lat": 59.3347281, "id": 355, "category": "cafe", "name": "Blueberry", "lon": 18.0786645, "created_on": 1420457905}, {"lat": 49.8370839, "id": 356, "category": "nightlife", "name": "DRU\u017dBA BOULDERING WALL", "lon": 18.1822722, "created_on": 1389625820}, {"lat": 32.0805836, "id": 368, "category": "default", "name": "Anonymous Tattoo", "lon": -81.0907363, "created_on": 1418404190}, {"lat": 45.8881405, "id": 358, "category": "nightlife", "name": "Mani Al Cielo", "lon": 11.0443447, "created_on": 1419373070}, {"lat": 48.1807703, "id": 359, "category": "shopping", "name": "Malefitz", "lon": 16.3333442, "created_on": 1414690317}, {"lat": -37.794259, "id": 370, "category": "cafe", "name": "Squirrel Caf\u00e9", "lon": 144.998243, "created_on": 1404048837}, {"lat": 57.6986649, "id": 361, "category": "cafe", "name": "Foxx Bar", "lon": 11.9684561, "created_on": 1385989606}, {"lat": 45.8907824, "id": 362, "category": "default", "name": "Bellezza Studio", "lon": 11.0364056, "created_on": 1427897546}, {"lat": -32.9337069, "id": 696, "category": "default", "name": "Ventonegro - Mountain Guide", "lon": -68.8625203, "created_on": 1380210113}, {"lat": 49.8396681, "id": 363, "category": "food", "name": "Mare Nero", "lon": 8.1131385, "created_on": 1391453531}, {"lat": 39.1860273, "id": 375, "category": "food", "name": "Bi Bim Bap Korean-Japanese Sushi Restaurant", "lon": -96.5728488, "created_on": 1395399369}, {"lat": -23.5565056, "id": 365, "category": "nightlife", "name": "Bar e Bicicletaria Las Magrelas", "lon": -46.6922432, "created_on": 1362078778}, {"lat": 41.1304234, "id": 343, "category": "default", "name": "Underhill's Games", "lon": -81.5080686, "created_on": 1390642337}, {"lat": -23.7860366, "id": 367, "category": "lodging", "name": "Kyrios Pousada", "lon": -45.5616388, "created_on": 1362409232}, {"lat": 27.7712825, "id": 373, "category": "food", "name": "Brooklyn South", "lon": -82.653952, "created_on": 1418693474}, {"lat": 52.30844, "id": 369, "category": "default", "name": "MusicON", "lon": 21.15293, "created_on": 1378982954}, {"lat": 36.9200158, "id": 371, "category": "lodging", "name": "Apartment Eucalyptus", "lon": 15.157466, "created_on": 1385686096}, {"lat": 50.447473, "id": 372, "category": "cafe", "name": "\u0426\u0438\u0444\u0435\u0440\u0431\u043b\u0430\u0442", "lon": 30.5158687, "created_on": 1399448731}, {"lat": 7.68507048449332, "id": 14377, "category": "default", "name": "REPRESENTACIONES PLAST ", "lon": -72.244119644165, "created_on": 1530729864}, {"lat": 49.1927975, "id": 376, "category": "food", "name": "SUBWAY Zelny trh", "lon": 16.6096883, "created_on": 1426278006}, {"lat": 51.5321142, "id": 377, "category": "default", "name": "London Hackspace", "lon": -0.0608219, "created_on": 1365897674}, {"lat": 45.4653323, "id": 378, "category": "default", "name": "Il Giornale", "lon": 9.1844258, "created_on": 1403865667}, {"lat": -37.83049, "id": 360, "category": "food", "name": "The South Melbourne Trader", "lon": 144.956894, "created_on": 1410131953}, {"lat": -19.8612660684149, "id": 8976, "category": "default", "name": "Lan Gamer", "lon": -43.9574253559113, "created_on": 1481716520}, {"lat": 31.8157299428383, "id": 9067, "category": "default", "name": "KAMRAN CHATTHA", "lon": 72.9059600830078, "created_on": 1483131143}, {"lat": 52.3681975, "id": 381, "category": "nightlife", "name": "LUX", "lon": 9.7205471, "created_on": 1422015840}, {"lat": 49.1839015, "id": 382, "category": "food", "name": "SUBWAY Rohlenka", "lon": 16.7609876, "created_on": 1387200321}, {"lat": 44.7992416, "id": 383, "category": "default", "name": "Ineo", "lon": 20.3898505, "created_on": 1406959880}, {"lat": 64.146661, "id": 384, "category": "default", "name": "Hringbraut", "lon": -21.954324, "created_on": 1398989106}, {"lat": 64.1477119, "id": 385, "category": "default", "name": "H\u00e1vallagata", "lon": -21.9513614, "created_on": 1398989106}, {"lat": 32.0714337, "id": 387, "category": "nightlife", "name": "\u05e4\u05d9\u05e7\u05d5\u05e7", "lon": 34.7803113, "created_on": 1400150559}, {"lat": 32.0714269, "id": 388, "category": "shopping", "name": "\u05d3\u05d5\u05d3\u05d9 \u05d1\u05df \u05d9\u05e9\u05d9 - Dudi Ben Yishay", "lon": 34.7802469, "created_on": 1404634568}, {"lat": 27.771341, "id": 394, "category": "food", "name": "Ricky P's", "lon": -82.650522, "created_on": 1416844255}, {"lat": -34.6153111, "id": 391, "category": "lodging", "name": "Hotel Viejo Telmo", "lon": -58.3798969, "created_on": 1417016136}, {"lat": -34.5930895, "id": 392, "category": "lodging", "name": "Hotel Argenta Tower", "lon": -58.3795149, "created_on": 1417446920}, {"lat": -34.606136, "id": 393, "category": "lodging", "name": "Hotel Boutique Le Vitral Baires", "lon": -58.395126, "created_on": 1417646649}, {"lat": 40.7524774, "id": 398, "category": "nightlife", "name": "EVR NYC", "lon": -73.984652, "created_on": 1365972694}, {"lat": 24.121471, "id": 395, "category": "default", "name": "Qrubit", "lon": -110.3026602, "created_on": 1365905823}, {"lat": 52.6114825, "id": 396, "category": "default", "name": "Edds Englisch", "lon": 11.8698283, "created_on": 1367168403}, {"lat": 32.0591092, "id": 397, "category": "food", "name": "\u05d1\u05e8-\u05e7\u05d9\u05d9\u05de\u05d0", "lon": 34.7710971, "created_on": 1365927560}, {"lat": 36.1258841, "id": 400, "category": "default", "name": "Vegas Budget Dental", "lon": -115.2327178, "created_on": 1366040095}, {"lat": 38.9699111, "id": 405, "category": "shopping", "name": "Overland Park Jeep Dodge Ram Chrysler", "lon": -94.6669718, "created_on": 1366214109}, {"lat": 38.3032742, "id": 401, "category": "food", "name": "Carena Bar - Restaurant", "lon": 20.6012471, "created_on": 1366041933}, {"lat": -34.4695284, "id": 403, "category": "attraction", "name": "CESYT", "lon": -58.5198403, "created_on": 1366126955}, {"lat": 43.651902, "id": 407, "category": "lodging", "name": "Urban Living Suites", "lon": -79.4074544, "created_on": 1366303792}, {"lat": 38.8558931, "id": 406, "category": "default", "name": "Total Roofing", "lon": -104.7132847, "created_on": 1366300019}, {"lat": 34.1643282, "id": 408, "category": "default", "name": "Model Printing internet cafe", "lon": -118.3740182, "created_on": 1366438893}, {"lat": 37.3780322, "id": 380, "category": "default", "name": "Mac's Coins & Collectables", "lon": -122.0328367, "created_on": 1386553782}, {"lat": 41.5008146, "id": 409, "category": "food", "name": "Parnell's Pub", "lon": -81.5652517, "created_on": 1397050219}, {"lat": 40.7954798, "id": 411, "category": "default", "name": "INGUARD", "lon": -85.8241762, "created_on": 1366642103}, {"lat": -33.5203143, "id": 697, "category": "default", "name": "Temascal", "lon": -70.545057, "created_on": 1380210672}, {"lat": -34.5429378, "id": 410, "category": "food", "name": "AntiDomingo - Restaurante -  Espacio de Arte", "lon": -58.4827456, "created_on": 1366576092}, {"lat": 44.9277216, "id": 412, "category": "grocery", "name": "Elevated Beer Wine & Spirits", "lon": -93.2238299, "created_on": 1401224144}, {"lat": 39.7961477, "id": 413, "category": "default", "name": "Caring Dentists", "lon": -86.02414, "created_on": 1366643318}, {"lat": 38.4147973, "id": 415, "category": "lodging", "name": "Arbogast Inn", "lon": -79.5848885, "created_on": 1367185598}, {"lat": 32.7851831, "id": 414, "category": "default", "name": "\u05d7\u05d1\u05e8 \u05e2\u05dc \u05d0\u05e8\u05d1\u05e2", "lon": 34.9868298, "created_on": 1366652041}, {"lat": 7.77134418393731, "id": 14378, "category": "default", "name": "COMERCIALIZADORA PIVECA CA", "lon": -72.2261703014374, "created_on": 1530730169}, {"lat": 38.9625124, "id": 418, "category": "sports", "name": "Peeper Ranch", "lon": -94.8917005, "created_on": 1366822264}, {"lat": 48.5768535, "id": 417, "category": "default", "name": "BitcoinSolution UG", "lon": 7.8135466, "created_on": 1414522366}, {"lat": 38.1098063, "id": 419, "category": "shopping", "name": "Cyber Computers", "lon": -122.2629487, "created_on": 1367179666}, {"lat": 35.0936542, "id": 420, "category": "shopping", "name": "ABQBitcoins", "lon": -106.6432031, "created_on": 1367164525}, {"lat": 29.7633158, "id": 422, "category": "default", "name": "Jay Cohen Attorney", "lon": -95.3602521, "created_on": 1367259280}, {"lat": 48.8508512, "id": 421, "category": "default", "name": "Ecogex", "lon": 2.3693991, "created_on": 1367166038}, {"lat": 48.8281212, "id": 423, "category": "food", "name": "Restaurant Le 43", "lon": 2.3500641, "created_on": 1387972036}, {"lat": 43.7298396, "id": 402, "category": "default", "name": "Ark Army Surplus", "lon": -79.4714987, "created_on": 1366054227}, {"lat": 49.1823853, "id": 379, "category": "nightlife", "name": "The Forum", "lon": -2.101886, "created_on": 1398955898}, {"lat": 48.3577357, "id": 425, "category": "default", "name": "OpenLab", "lon": 10.8867806, "created_on": 1375869241}, {"lat": 39.9620241, "id": 431, "category": "default", "name": "Hive76", "lon": -75.1535149, "created_on": 1387380689}, {"lat": 32.7473117, "id": 427, "category": "lodging", "name": "Galilee Bedouin Camplodge", "lon": 35.1671927, "created_on": 1367684440}, {"lat": 55.6919311, "id": 428, "category": "shopping", "name": "Ruben og Bobby", "lon": 12.5451958, "created_on": 1367852894}, {"lat": 43.4497252, "id": 437, "category": "default", "name": "Fairtax Business Services", "lon": -80.4910233, "created_on": 1395248181}, {"lat": 42.0439539, "id": 432, "category": "shopping", "name": "Bucephalus Bikes", "lon": -87.6933691, "created_on": 1390153987}, {"lat": 28.2545197, "id": 435, "category": "default", "name": "Accelerated Global - Website Design, SEO, Social Media, Internet Marketing", "lon": -82.4675148, "created_on": 1373977128}, {"lat": 47.4981089, "id": 433, "category": "nightlife", "name": "Anker Klub", "lon": 19.0555471, "created_on": 1416770680}, {"lat": 37.7949012, "id": 438, "category": "shopping", "name": "Buyer's Best Friend Wholesale & Market", "lon": -122.3928736, "created_on": 1368481112}, {"lat": 37.799094, "id": 439, "category": "shopping", "name": "Mercato", "lon": -122.4082139, "created_on": 1368481248}, {"lat": 17.0622261, "id": 436, "category": "lodging", "name": "El Diablo y la Sand\u00eda", "lon": -96.7194275, "created_on": 1373113734}, {"lat": 45.4236594, "id": 444, "category": "atm", "name": "Bitcoin ATM @ Father and Sons", "lon": -75.6812834, "created_on": 1400434246}, {"lat": 40.2386813, "id": 448, "category": "default", "name": "Bear & Birch Russian Sauna", "lon": -74.254887, "created_on": 1369783344}, {"lat": 39.1257138, "id": 453, "category": "food", "name": "Stix", "lon": -94.8266002, "created_on": 1395349473}, {"lat": 40.3164912, "id": 440, "category": "grocery", "name": "Mundo Nip\u00f3n", "lon": -3.7209567, "created_on": 1381426513}, {"lat": 51.9833075, "id": 441, "category": "food", "name": "Karakter", "lon": 5.9015192, "created_on": 1401212651}, {"lat": 52.3669615, "id": 442, "category": "default", "name": "ZB45 makerspace", "lon": 4.9371836, "created_on": 1368726899}, {"lat": 48.1884173, "id": 445, "category": "default", "name": "3D tla\u010d - MarSal Tech", "lon": 17.1333048, "created_on": 1369510312}, {"lat": 52.4947545, "id": 446, "category": "lodging", "name": "Lekkerurlaub", "lon": 13.4193216, "created_on": 1374079032}, {"lat": 30.2822276, "id": 426, "category": "shopping", "name": "Brave New Books", "lon": -97.7422902, "created_on": 1367614340}, {"lat": 30.264266, "id": 456, "category": "food", "name": "Mai Thai", "lon": -97.741411, "created_on": 1397296688}, {"lat": -33.9309411, "id": 449, "category": "default", "name": "Fire & Ice - Fire dancers Cape Town", "lon": 18.5068705, "created_on": 1384864393}, {"lat": 40.1953477, "id": 450, "category": "default", "name": "Carregador Telem\u00f3veis Bitcoin", "lon": -8.420859, "created_on": 1369853427}, {"lat": 51.4453074, "id": 451, "category": "lodging", "name": "Schinkler B&B", "lon": -0.0475145, "created_on": 1369858527}, {"lat": 51.0338414, "id": 452, "category": "lodging", "name": "Hillside B&B", "lon": -1.7933118, "created_on": 1397823876}, {"lat": 47.5542827, "id": 465, "category": "default", "name": "Accountable Moving & Storage", "lon": -122.331924, "created_on": 1374341558}, {"lat": -46.2388791, "id": 454, "category": "food", "name": "Nom Noms", "lon": 169.7384583, "created_on": 1370258723}, {"lat": 44.1977147, "id": 455, "category": "default", "name": "Massage, Reiki, Reflexotherapy", "lon": 28.6276082, "created_on": 1370347455}, {"lat": 45.4621248, "id": 457, "category": "default", "name": "BLB Studio Legale", "lon": 9.1734123, "created_on": 1406220475}, {"lat": 32.0733562, "id": 458, "category": "shopping", "name": "Bit2c", "lon": 34.7820282, "created_on": 1373290756}, {"lat": 7.8978667, "id": 459, "category": "shopping", "name": "Paisajismo Creativo", "lon": -72.5000885, "created_on": 1370838045}, {"lat": 45.6616644, "id": 461, "category": "cafe", "name": "Wall Street Caf\u00e9", "lon": 9.5034086, "created_on": 1379273612}, {"lat": 60.2474293, "id": 462, "category": "default", "name": "Meid\u00e4nklinikka", "lon": 24.8601699, "created_on": 1371071814}, {"lat": 51.3828723, "id": 463, "category": "default", "name": "Zaar Properties", "lon": -0.1075162, "created_on": 1392136410}, {"lat": 46.0324281, "id": 464, "category": "default", "name": "BitcoinPeople.net", "lon": 14.4287941, "created_on": 1371413538}, {"lat": 43.5964282, "id": 430, "category": "default", "name": "Coworking Space Toronto", "lon": -79.5241625, "created_on": 1368131669}, {"lat": 48.2249234, "id": 424, "category": "default", "name": "spielend - programmieren", "lon": 16.3690078, "created_on": 1385497198}, {"lat": 31.8180638159099, "id": 9068, "category": "attraction", "name": "KAMRAN CHATTHA", "lon": 72.7940368652344, "created_on": 1483131158}, {"lat": 31.6855232841456, "id": 9069, "category": "default", "name": "KAMRAN CHATTHA", "lon": 72.9093933105469, "created_on": 1483131182}, {"lat": 27.7713247, "id": 472, "category": "cafe", "name": "Everything Dolce Cafe`", "lon": -82.6477614, "created_on": 1415826389}, {"lat": 40.4226354, "id": 469, "category": "shopping", "name": "Carolina Herrera", "lon": -3.6881045, "created_on": 1415273114}, {"lat": 41.645174, "id": 470, "category": "default", "name": "Nestor Games", "lon": -0.9186542, "created_on": 1385709246}, {"lat": 41.628862, "id": 471, "category": "default", "name": "Traductor ingl\u00e9s/franc\u00e9s a espa\u00f1ol", "lon": -0.888857, "created_on": 1402386618}, {"lat": 37.7895241, "id": 478, "category": "default", "name": "My Doctor Medical Group", "lon": -122.4077704, "created_on": 1372266792}, {"lat": 39.9330018, "id": 473, "category": "default", "name": "Koryo Tours", "lon": 116.4456793, "created_on": 1372085138}, {"lat": 48.9553813, "id": 474, "category": "default", "name": "Prvn\u00ed hovoransk\u00e9 - dom\u00e1c\u00ed pivo", "lon": 17.0028863, "created_on": 1389785378}, {"lat": 48.7183858, "id": 475, "category": "shopping", "name": "Svadobn\u00fd sal\u00f3n - La Fiaba", "lon": 21.2317463, "created_on": 1386182145}, {"lat": 43.7667624, "id": 476, "category": "default", "name": "Tuxel", "lon": 11.2175238, "created_on": 1400845659}, {"lat": 43.7767717, "id": 477, "category": "default", "name": "Smokies", "lon": 11.2513417, "created_on": 1393886777}, {"lat": 34.0685731, "id": 480, "category": "default", "name": "Elite body sculpture", "lon": -118.4054183, "created_on": 1372464468}, {"lat": 29.9010124, "id": 492, "category": "default", "name": "Monti Notary Services, LLC", "lon": -90.3866885, "created_on": 1373392340}, {"lat": 51.0805689, "id": 481, "category": "default", "name": "LotWin Software", "lon": 1.1700115, "created_on": 1372835827}, {"lat": 20.6789092, "id": 483, "category": "lodging", "name": "El Hostelito", "lon": -103.3639647, "created_on": 1373122041}, {"lat": 48.9209562, "id": 486, "category": "default", "name": "YogiWay", "lon": 21.9126911, "created_on": 1373132088}, {"lat": 40.4240656, "id": 487, "category": "shopping", "name": "Loewe", "lon": -3.6878536, "created_on": 1415273091}, {"lat": 40.4243699, "id": 488, "category": "shopping", "name": "Prada", "lon": -3.6877992, "created_on": 1415273057}, {"lat": 44.3352159, "id": 489, "category": "lodging", "name": "Gite de la Fontaine", "lon": 2.7152861, "created_on": 1389090528}, {"lat": 40.8545977, "id": 490, "category": "lodging", "name": "BB del Corso", "lon": 14.2677924, "created_on": 1373287733}, {"lat": 51.0296191, "id": 491, "category": "lodging", "name": "Bed and Breakfast Luna Luna", "lon": 4.4763857, "created_on": 1373295570}, {"lat": 26.803033, "id": 493, "category": "default", "name": "Audio Props", "lon": -80.076921, "created_on": 1373391367}, {"lat": 40.7485331, "id": 496, "category": "default", "name": "Nesenoff & Miltenberg LLP", "lon": -73.9922549, "created_on": 1373458545}, {"lat": 41.9444994, "id": 495, "category": "default", "name": "Ottonodi S.r.l.", "lon": 12.5598787, "created_on": 1373416563}, {"lat": 28.3318001, "id": 501, "category": "shopping", "name": "Heidi Jo's boutique", "lon": -82.6852635, "created_on": 1373559316}, {"lat": 1.3028912, "id": 497, "category": "cafe", "name": "Artistry cafe", "lon": 103.8581886, "created_on": 1373472535}, {"lat": 41.9229699, "id": 498, "category": "default", "name": "De Castro Herrero", "lon": 12.4384006, "created_on": 1373478053}, {"lat": 30.3546209, "id": 468, "category": "food", "name": "Quizno's Far West", "lon": -97.7563751, "created_on": 1397300183}, {"lat": 40.7255191, "id": 502, "category": "food", "name": "Firehouse BBQ", "lon": -111.8746513, "created_on": 1373560860}, {"lat": 52.9545579, "id": 503, "category": "food", "name": "The Barrel Drop", "lon": -1.1525597, "created_on": 1417946832}, {"lat": -33.927106, "id": 504, "category": "default", "name": "SouthAfrica.to", "lon": 18.5178746, "created_on": 1386577370}, {"lat": 33.7202935, "id": 645, "category": "default", "name": "Triple Crown Transport", "lon": -117.7854931, "created_on": 1378894988}, {"lat": -34.7051933, "id": 506, "category": "shopping", "name": "CD KEY ARG", "lon": -58.3963361, "created_on": 1374844094}, {"lat": 37.5384634, "id": 508, "category": "default", "name": "SV Commerce S.R.L.", "lon": 15.0721251, "created_on": 1374066792}, {"lat": 39.4656268, "id": 509, "category": "default", "name": "klikaid.com", "lon": -0.3541131, "created_on": 1374844095}, {"lat": 48.8562186, "id": 510, "category": "default", "name": "Mark Hachem", "lon": 2.3661152, "created_on": 1385487707}, {"lat": 49.8706005, "id": 500, "category": "default", "name": "Rollingdale Winery", "lon": -119.5432898, "created_on": 1373540517}, {"lat": 45.4656313, "id": 466, "category": "default", "name": "X-Laboratories", "lon": 9.184378, "created_on": 1397336802}, {"lat": 57.994703475041, "id": 8448, "category": "shopping", "name": "\u041c\u0430\u0433\u0430\u0437\u0438\u043d \u041f\u0440\u044f\u0436\u0438 \u043d\u0430 \u041a\u0443\u0439\u0431\u044b\u0448\u0435\u0432\u0430 80", "lon": 56.2472587823868, "created_on": 1471287628}, {"lat": 29.9552478, "id": 523, "category": "shopping", "name": "David's Antiques", "lon": -90.0671103, "created_on": 1375139572}, {"lat": 50.9214593, "id": 514, "category": "default", "name": "Souren Meubels", "lon": 5.8822565, "created_on": 1374523074}, {"lat": 45.5497484, "id": 516, "category": "default", "name": "Studio Legale Nicolin & Partners", "lon": 11.5410603, "created_on": 1374747229}, {"lat": 13.7254794, "id": 518, "category": "food", "name": "Eat Me Restaurant", "lon": 100.5338981, "created_on": 1398299209}, {"lat": 52.5431837, "id": 512, "category": "default", "name": "Bitbond.net", "lon": 13.4136813, "created_on": 1374244490}, {"lat": 53.0786473, "id": 519, "category": "lodging", "name": "The Ring Farmhouse", "lon": -7.8818318, "created_on": 1374932159}, {"lat": 28.4696927, "id": 520, "category": "default", "name": "Deportes Pineda", "lon": -16.2865003, "created_on": 1374937249}, {"lat": 49.272533, "id": 521, "category": "default", "name": "Virtu\u00e1ln\u00edM\u011bny.com", "lon": 14.7127509, "created_on": 1406105017}, {"lat": 54.3156663, "id": 522, "category": "shopping", "name": "Altes Haus 1912", "lon": 8.6080476, "created_on": 1388764725}, {"lat": 47.6097909, "id": 529, "category": "shopping", "name": "Nesbit's Fine Watch Service", "lon": -122.3366622, "created_on": 1376041173}, {"lat": 47.0697416, "id": 524, "category": "food", "name": "Gaumenkino", "lon": 15.4511652, "created_on": 1382882552}, {"lat": 35.6619788, "id": 525, "category": "food", "name": "The Pink Cow", "lon": 139.7347066, "created_on": 1375178410}, {"lat": 53.5181957, "id": 527, "category": "cafe", "name": "Remedy Caf\u00e9 Whyte Ave", "lon": -113.4981158, "created_on": 1375199401}, {"lat": 49.4253236, "id": 542, "category": "default", "name": "Plasticsmith Inc.", "lon": -123.6502561, "created_on": 1375916287}, {"lat": 51.5230177, "id": 528, "category": "attraction", "name": "Makers Academy", "lon": -0.0870287, "created_on": 1375359842}, {"lat": 41.5070127, "id": 540, "category": "nightlife", "name": "David's Grill & Bar", "lon": -81.6910207, "created_on": 1375619023}, {"lat": 51.4161187, "id": 530, "category": "food", "name": "King William IV", "lon": -3.2553098, "created_on": 1375455731}, {"lat": 51.2142696, "id": 531, "category": "default", "name": "Paul Christie Artists", "lon": -0.8079667, "created_on": 1375520806}, {"lat": 50.8651654, "id": 532, "category": "default", "name": "RedBedlam", "lon": -0.0831539, "created_on": 1375522680}, {"lat": 50.8649995, "id": 533, "category": "default", "name": "MetaLair", "lon": -0.0830144, "created_on": 1375522909}, {"lat": 51.2142822, "id": 534, "category": "default", "name": "Ravenscourt Design", "lon": -0.8078318, "created_on": 1375524691}, {"lat": 50.8650162, "id": 535, "category": "default", "name": "Virtual Doctors Charity", "lon": -0.0829556, "created_on": 1375525377}, {"lat": 51.4162546, "id": 536, "category": "shopping", "name": "the idiot village", "lon": -3.2549219, "created_on": 1377110647}, {"lat": 50.8452085, "id": 538, "category": "default", "name": "Bitcoin Stickers", "lon": -0.1340355, "created_on": 1375575046}, {"lat": 50.8175802, "id": 539, "category": "default", "name": "Coast Networks", "lon": -0.1154337, "created_on": 1375574990}, {"lat": 52.1756954, "id": 541, "category": "default", "name": "T\u0142umacz Przysi\u0119g\u0142y j\u0119zyka francuskiego", "lon": 21.0509758, "created_on": 1375790274}, {"lat": 49.4354428, "id": 544, "category": "default", "name": "Vital Signs and Graphics", "lon": -123.6450166, "created_on": 1375917353}, {"lat": 49.2447077, "id": 548, "category": "default", "name": "No Limit Landscaping", "lon": -123.090625, "created_on": 1375962482}, {"lat": 41.6424458, "id": 546, "category": "default", "name": "calbasi.net", "lon": 2.3656065, "created_on": 1375930492}, {"lat": 49.2838787, "id": 549, "category": "default", "name": "Art of Muse", "lon": -123.1094654, "created_on": 1375962754}, {"lat": 49.2836873, "id": 550, "category": "default", "name": "Rocket Cases", "lon": -123.1121284, "created_on": 1375963068}, {"lat": 39.8297606, "id": 597, "category": "default", "name": "Limousine Service - Ride a class", "lon": -74.9784601, "created_on": 1377985120}, {"lat": 49.2828816, "id": 551, "category": "default", "name": "Free Geek Vancouver", "lon": -123.0675825, "created_on": 1375963852}, {"lat": 49.2812739, "id": 552, "category": "default", "name": "Key 3D", "lon": -123.1079885, "created_on": 1375964395}, {"lat": 49.4764425, "id": 553, "category": "shopping", "name": "Rapid Edge Technologies", "lon": -123.7560568, "created_on": 1375965837}, {"lat": 34.1680312, "id": 513, "category": "shopping", "name": "Christopher R\u00fctman HairStylist", "lon": -118.5993594, "created_on": 1374418283}, {"lat": 38.0514676, "id": 1088, "category": "default", "name": "Smart NS", "lon": 23.811187, "created_on": 1385200881}, {"lat": -31.7701939499189, "id": 8409, "category": "default", "name": "CESFIL - LAR DE IDOSOS", "lon": -52.3312497138977, "created_on": 1470765349}, {"lat": 41.8535316, "id": 565, "category": "default", "name": "BooshWorks", "lon": -87.6467139, "created_on": 1377191629}, {"lat": 49.4462556, "id": 559, "category": "default", "name": "Jaybird Home Improvements", "lon": -123.6407587, "created_on": 1376325580}, {"lat": 45.4293401, "id": 580, "category": "food", "name": "Clock Tower Brew Pub", "lon": -75.6926952, "created_on": 1398341447}, {"lat": 43.2116975, "id": 560, "category": "default", "name": "HolidayDelux", "lon": 27.9279826, "created_on": 1376380155}, {"lat": 37.0398136, "id": 561, "category": "shopping", "name": "laptopstore.gr Kalamata", "lon": 22.1120191, "created_on": 1376468555}, {"lat": 50.8260584, "id": 563, "category": "default", "name": "Bells and Whistles Bespoke Wedding Stationery", "lon": -0.3666919, "created_on": 1376652710}, {"lat": 15.5797752, "id": 564, "category": "lodging", "name": "Zephyr lodge", "lon": -89.9791028, "created_on": 1376900576}, {"lat": 40.2999382, "id": 568, "category": "default", "name": "La Nay Ferme", "lon": -111.6469702, "created_on": 1377198523}, {"lat": 47.0516746, "id": 567, "category": "default", "name": "NRGym", "lon": 21.9180194, "created_on": 1391603123}, {"lat": 43.6633694, "id": 583, "category": "default", "name": "Luxury Vacation Cabin Rental", "lon": -111.3075235, "created_on": 1378340782}, {"lat": 45.5370965, "id": 569, "category": "shopping", "name": "Atelier 77", "lon": -73.620874, "created_on": 1398166222}, {"lat": 46.5251266, "id": 570, "category": "cafe", "name": "Sweet Dreams Cupcake Caf\u00e9", "lon": 6.636048, "created_on": 1377424096}, {"lat": 1.2868039, "id": 571, "category": "default", "name": "Squash Passion", "lon": 103.8484881, "created_on": 1377427362}, {"lat": 36.3224546, "id": 572, "category": "default", "name": "Bachman Roasting", "lon": 127.4194858, "created_on": 1377430628}, {"lat": 1.318278, "id": 573, "category": "default", "name": "Surat IT Pte. Ltd.", "lon": 103.8429873, "created_on": 1377431067}, {"lat": 1.4234341, "id": 574, "category": "default", "name": "kranjiracing.com", "lon": 103.7659708, "created_on": 1377431427}, {"lat": 1.2924963, "id": 575, "category": "default", "name": "Winn Host", "lon": 103.8508024, "created_on": 1377432034}, {"lat": 46.9955152, "id": 576, "category": "default", "name": "Paraeasy", "lon": 8.6073001, "created_on": 1377432885}, {"lat": 47.3057547, "id": 577, "category": "default", "name": "ProAdicta Escape Ambulatorium", "lon": 8.0549832, "created_on": 1377433880}, {"lat": 47.1293848, "id": 578, "category": "default", "name": "Birchler Media", "lon": 8.7469781, "created_on": 1386431689}, {"lat": 46.3206726, "id": 557, "category": "food", "name": "Manila Bay Cafe", "lon": -117.9788371, "created_on": 1376086979}, {"lat": 49.422352, "id": 558, "category": "default", "name": "Copper Stills", "lon": -123.643337, "created_on": 1376274833}, {"lat": 45.5462651, "id": 582, "category": "atm", "name": "AutoCoinage Bitcoin ATM/Canada Hotdog", "lon": -73.5760049, "created_on": 1400980858}, {"lat": 40.4982963, "id": 584, "category": "shopping", "name": "Brothers Whim Bookstore", "lon": -111.8846222, "created_on": 1377968284}, {"lat": 37.7587119, "id": 585, "category": "default", "name": "20mission Hacker Hotel", "lon": -122.4178384, "created_on": 1377973490}, {"lat": 36.9824413, "id": 586, "category": "default", "name": "The Santa Cruz Experience Wine Tour", "lon": -122.0385092, "created_on": 1377973896}, {"lat": 36.0720711, "id": 587, "category": "cafe", "name": "Caf\u00e9 Berlin", "lon": -115.2072063, "created_on": 1377974339}, {"lat": 34.1221138, "id": 588, "category": "default", "name": "Dmitry Savchenko Art Photography", "lon": -118.2969126, "created_on": 1377975337}, {"lat": 34.0932873, "id": 589, "category": "default", "name": "Brain Guzzle Digital Marketing", "lon": -118.3780461, "created_on": 1377975747}, {"lat": 34.1217773, "id": 590, "category": "default", "name": "Mas Music Productions", "lon": -118.2067935, "created_on": 1377976098}, {"lat": 32.7141993, "id": 591, "category": "default", "name": "Logan Fairfax Law", "lon": -117.1599549, "created_on": 1377976625}, {"lat": 37.0753235, "id": 592, "category": "default", "name": "Lucid Guitar Studio Lessons (dvd, skype, guitar lessons)", "lon": -95.7105846, "created_on": 1377981183}, {"lat": 35.7556774, "id": 593, "category": "grocery", "name": "Alberty\u2019s Broadway Liquor", "lon": -95.4029606, "created_on": 1377981570}, {"lat": 30.6955212, "id": 595, "category": "default", "name": "False River Fencing", "lon": -91.4433462, "created_on": 1377983325}, {"lat": 39.165605, "id": 596, "category": "default", "name": "E-Gov Link", "lon": -84.5411898, "created_on": 1377983699}, {"lat": 28.5241431, "id": 598, "category": "default", "name": "Dr. Murad Thakur", "lon": -81.3147606, "created_on": 1377985864}, {"lat": -38.2307613, "id": 581, "category": "default", "name": "Rafftas Knick Knacks", "lon": 146.3955451, "created_on": 1387380818}, {"lat": 53.5452827, "id": 627, "category": "default", "name": "Wisdom Survival Kits", "lon": -113.4921427, "created_on": 1378154917}, {"lat": 33.370125, "id": 605, "category": "default", "name": "Debordieu Beachfront Villa", "lon": -79.152546, "created_on": 1378130711}, {"lat": 52.9287622, "id": 604, "category": "default", "name": "Phenoptix", "lon": -1.2130131, "created_on": 1386009081}, {"lat": 47.8084569, "id": 628, "category": "default", "name": "Wiki Speed", "lon": -122.2935987, "created_on": 1378155749}, {"lat": 21.0164854, "id": 606, "category": "lodging", "name": "La Casa en Guanajuato", "lon": -101.2552001, "created_on": 1378132379}, {"lat": 20.211455, "id": 607, "category": "sports", "name": "Dive Adventures Tulum", "lon": -87.4657949, "created_on": 1378132772}, {"lat": 18.0159761, "id": 608, "category": "default", "name": "Villa In the Caribbean", "lon": -63.0338016, "created_on": 1378133118}, {"lat": -22.9657072, "id": 609, "category": "default", "name": "Copa Apartments", "lon": -43.1796703, "created_on": 1378134297}, {"lat": 51.9298963, "id": 610, "category": "default", "name": "The Farmhouse", "lon": -2.4055537, "created_on": 1378135940}, {"lat": 52.1629764, "id": 611, "category": "lodging", "name": "B&B De Haven", "lon": 4.5073454, "created_on": 1378136273}, {"lat": 52.3694796, "id": 612, "category": "lodging", "name": "Canal Apartments", "lon": 4.8780329, "created_on": 1378136629}, {"lat": 56.946815, "id": 613, "category": "lodging", "name": "Teddy Hostel", "lon": 24.1115359, "created_on": 1378137575}, {"lat": 52.4765475, "id": 614, "category": "default", "name": "Heidi Leyton - Berlin Tours", "lon": 13.4217795, "created_on": 1378141864}, {"lat": 52.4926413, "id": 615, "category": "nightlife", "name": "Fabelhaft Bar", "lon": 13.421213, "created_on": 1378142299}, {"lat": 48.853361, "id": 616, "category": "default", "name": "Experience Paris", "lon": 2.3079261, "created_on": 1378142677}, {"lat": 47.6473422, "id": 617, "category": "default", "name": "Lakeside Apartment in Tata", "lon": 18.3277058, "created_on": 1378143876}, {"lat": 47.5493066, "id": 618, "category": "default", "name": "Emident", "lon": 19.0272363, "created_on": 1378144460}, {"lat": 42.4180687, "id": 619, "category": "default", "name": "Culture Discovery Vacations", "lon": 12.2340192, "created_on": 1378145431}, {"lat": 40.3975506, "id": 620, "category": "lodging", "name": "Quinta da Abelenda", "lon": -8.1071609, "created_on": 1378147322}, {"lat": 36.316523, "id": 621, "category": "lodging", "name": "Paraiso Perdido", "lon": -6.1050038, "created_on": 1378147905}, {"lat": 32.0647627, "id": 622, "category": "nightlife", "name": "October Bar", "lon": 34.7748698, "created_on": 1378148263}, {"lat": 37.5562751, "id": 623, "category": "default", "name": "GREAT LOCATION, Cozy 2BR in Hongdae", "lon": 126.926412, "created_on": 1378149153}, {"lat": -26.078775, "id": 624, "category": "default", "name": "Shawson Plastics", "lon": 27.9743119, "created_on": 1378149628}, {"lat": -33.9710175, "id": 625, "category": "default", "name": "Gotaclick", "lon": 18.473003, "created_on": 1378149835}, {"lat": 45.3442673, "id": 634, "category": "default", "name": "Lightbox Technologies Inc", "lon": -75.7088092, "created_on": 1378218336}, {"lat": 47.6069606, "id": 629, "category": "default", "name": "Phillip Morgan Photography", "lon": -122.3332006, "created_on": 1378156054}, {"lat": 45.5412826, "id": 630, "category": "default", "name": "Siempre Beauty", "lon": -122.6265672, "created_on": 1378156672}, {"lat": 37.79696, "id": 631, "category": "default", "name": "Humble Bundle", "lon": -122.4021345, "created_on": 1378157242}, {"lat": 37.3806428, "id": 632, "category": "default", "name": "BitcoinStore.com", "lon": -121.9835014, "created_on": 1378157627}, {"lat": 35.9992281, "id": 635, "category": "food", "name": "Brooklyn Bagel Deli", "lon": -115.1040079, "created_on": 1382096936}, {"lat": 39.0379364, "id": 603, "category": "shopping", "name": "MountaineerIT", "lon": -80.4592545, "created_on": 1378340497}, {"lat": 46.8707071, "id": 636, "category": "default", "name": "XPI LLC", "lon": -96.7938544, "created_on": 1378264914}, {"lat": 35.1907704, "id": 638, "category": "default", "name": "Sunlight Homes", "lon": -106.5321456, "created_on": 1378422981}, {"lat": 51.1979768, "id": 637, "category": "default", "name": "Haydon Computer Solutions", "lon": -0.7930017, "created_on": 1378393655}, {"lat": 33.8601141, "id": 640, "category": "default", "name": "Call The Ninja Computer Repair", "lon": -118.2892305, "created_on": 1378903012}, {"lat": 33.6981497, "id": 641, "category": "default", "name": "Luxury Living Direct", "lon": -117.8653959, "created_on": 1378660586}, {"lat": 37.564246, "id": 644, "category": "shopping", "name": "Edmond's Plaza Florist", "lon": -122.3239197, "created_on": 1420754131}, {"lat": 49.1831296, "id": 642, "category": "default", "name": "Carpe Diem Accounting", "lon": -2.1081179, "created_on": 1378692882}, {"lat": 52.076874, "id": 643, "category": "default", "name": "Sanshinkai Aikido Utrecht", "lon": 5.1396952, "created_on": 1383142973}, {"lat": -26.6511691, "id": 626, "category": "default", "name": "DataOne", "lon": 153.0892964, "created_on": 1378150269}, {"lat": 1.2821538, "id": 600, "category": "default", "name": "Coin Republic", "lon": 103.850783, "created_on": 1378047924}, {"lat": 62.9886083, "id": 648, "category": "grocery", "name": "Ostosmarket", "lon": 27.7273641, "created_on": 1379084093}, {"lat": 49.8973665, "id": 654, "category": "shopping", "name": "Winnipeg Technology & Computer Renewal Express", "lon": -97.1392924, "created_on": 1379264548}, {"lat": 39.9069502, "id": 649, "category": "default", "name": "Translation Genie - Professional Translation Services", "lon": 32.751648, "created_on": 1379149465}, {"lat": 45.513091, "id": 650, "category": "default", "name": "Bitcoin Embassy", "lon": -73.5705426, "created_on": 1379174331}, {"lat": 34.1388967, "id": 658, "category": "default", "name": "New Liberty Dollar", "lon": -118.7387041, "created_on": 1380322846}, {"lat": 41.6176401, "id": 652, "category": "food", "name": "Restaurante Marisqueria Os Galegos", "lon": 2.2924038, "created_on": 1379202246}, {"lat": 49.2715235, "id": 663, "category": "shopping", "name": "Vancouver iPhones", "lon": -123.0898413, "created_on": 1379627557}, {"lat": 44.7038686, "id": 646, "category": "default", "name": "Stanfield's Pro Hockey Underwear", "lon": -63.6899786, "created_on": 1379016666}, {"lat": 43.6019697, "id": 656, "category": "default", "name": "Atelier de la Guitare", "lon": 1.4408606, "created_on": 1420915646}, {"lat": 63.7197471, "id": 657, "category": "lodging", "name": "Giljaland Accommodation", "lon": -18.5056793, "created_on": 1379371631}, {"lat": 41.7693989, "id": 659, "category": "default", "name": "Bees Brothers", "lon": -111.8040248, "created_on": 1379531784}, {"lat": 40.2507868, "id": 660, "category": "default", "name": "Sweet Burrito Provo", "lon": -111.6583936, "created_on": 1379532429}, {"lat": 40.2339429, "id": 661, "category": "default", "name": "Knives4Bitcoin", "lon": -111.6589718, "created_on": 1379532711}, {"lat": 33.0618314, "id": 662, "category": "default", "name": "Shatto & Sons Custom T-shirt Shop", "lon": -117.3015836, "created_on": 1379533365}, {"lat": 41.1337479, "id": 666, "category": "default", "name": "Agora Commodities", "lon": -104.8141159, "created_on": 1379620069}, {"lat": 39.9074938, "id": 651, "category": "default", "name": "C&E Auto Parts and Service, LLC", "lon": -75.2231885, "created_on": 1379194803}, {"lat": 42.9123948, "id": 667, "category": "default", "name": "Private Internet Access", "lon": -85.7563234, "created_on": 1379620316}, {"lat": 35.4487922, "id": 668, "category": "default", "name": "PheromoneXS", "lon": -89.8143662, "created_on": 1379620677}, {"lat": 32.9991522, "id": 669, "category": "default", "name": "The Vapor Station", "lon": -96.9629146, "created_on": 1379626806}, {"lat": 42.399978, "id": 670, "category": "default", "name": "Grass Hill Alpaca Socks", "lon": -72.684656, "created_on": 1379627371}, {"lat": 40.9082058, "id": 671, "category": "default", "name": "OK Cupid", "lon": -73.9022156, "created_on": 1379627856}, {"lat": 40.8801074, "id": 672, "category": "default", "name": "BitVPS", "lon": -73.8719703, "created_on": 1379694705}, {"lat": 40.7154852, "id": 673, "category": "default", "name": "Xcubicle", "lon": -73.9899564, "created_on": 1379695028}, {"lat": 40.7144038, "id": 674, "category": "default", "name": "Techno Tourist", "lon": -74.005943, "created_on": 1379695191}, {"lat": 39.9903571, "id": 675, "category": "default", "name": "Churrusco Shop", "lon": -75.1651416, "created_on": 1379695988}, {"lat": 39.9893136, "id": 677, "category": "default", "name": "Philadelphia Slick", "lon": -75.0969678, "created_on": 1379727538}, {"lat": 49.9762867, "id": 676, "category": "default", "name": "JFF-Software", "lon": 6.7418609, "created_on": 1386801779}, {"lat": 36.1000126, "id": 678, "category": "default", "name": "Lucid Guitar Studios", "lon": -80.2440421, "created_on": 1379727815}, {"lat": 39.1012251, "id": 680, "category": "default", "name": "Netsolus", "lon": -94.5787346, "created_on": 1379786322}, {"lat": 40.551629, "id": 679, "category": "default", "name": "Capri Shopping", "lon": 14.2437697, "created_on": 1379732636}, {"lat": 40.6805896, "id": 687, "category": "default", "name": "Puppy Paws", "lon": -73.8440086, "created_on": 1380322790}, {"lat": 63.7188423, "id": 681, "category": "grocery", "name": "Gide Get HB", "lon": 18.7040275, "created_on": 1380322896}, {"lat": 45.5253582, "id": 682, "category": "default", "name": "Kigurumi Canada", "lon": -73.5975839, "created_on": 1379815103}, {"lat": 23.6974568, "id": 683, "category": "default", "name": "Memiro Mexico", "lon": -102.5056244, "created_on": 1379867739}, {"lat": 19.490128, "id": 684, "category": "default", "name": "Siglotienda", "lon": -98.9780798, "created_on": 1379868421}, {"lat": 9.9274821, "id": 685, "category": "default", "name": "CR servers", "lon": -84.0818538, "created_on": 1379870046}, {"lat": 41.6630854, "id": 690, "category": "food", "name": "Devotay", "lon": -91.5317792, "created_on": 1397328911}, {"lat": 6.2449132, "id": 688, "category": "default", "name": "Mata Candelas", "lon": -75.5648017, "created_on": 1379998397}, {"lat": 6.2471528, "id": 689, "category": "default", "name": "Rocco Graficas", "lon": -75.587182, "created_on": 1379998564}, {"lat": 42.696697, "id": 691, "category": "default", "name": "MEM Services EOOD", "lon": 23.3293568, "created_on": 1380014973}, {"lat": -33.8731346, "id": 655, "category": "food", "name": "The Old Fitzroy Hotel", "lon": 151.2206281, "created_on": 1379362558}, {"lat": 41.1044496430169, "id": 8232, "category": "shopping", "name": "AGDV-antincendio-antinfortunistica-segnaletica-estintori", "lon": 14.8225897550583, "created_on": 1466074569}, {"lat": -31.4180203, "id": 694, "category": "lodging", "name": "Azur Real Hotel Boutique", "lon": -64.1811598, "created_on": 1380063317}, {"lat": -31.4120319, "id": 695, "category": "default", "name": "Maxi Vac", "lon": -64.20739, "created_on": 1380063522}, {"lat": -32.9559766, "id": 699, "category": "shopping", "name": "Mapplics Mobile Solutions", "lon": -60.6447398, "created_on": 1380211201}, {"lat": 28.4235929, "id": 700, "category": "default", "name": "Andr\u00e9s Morales Dise\u00f1o Gr\u00e1fico y Publicidad", "lon": -16.2958266, "created_on": 1380211871}, {"lat": 28.4614784, "id": 701, "category": "default", "name": "Depor Club", "lon": -16.2849054, "created_on": 1380212119}, {"lat": 28.1136915, "id": 702, "category": "default", "name": "Sex Shop 21", "lon": -15.4403418, "created_on": 1380212550}, {"lat": 28.1416268, "id": 703, "category": "default", "name": "Canary Hosting", "lon": -15.6288958, "created_on": 1380212614}, {"lat": -36.8484148, "id": 704, "category": "default", "name": "Mega.co.nz - Privacy Company", "lon": 174.7636067, "created_on": 1380212852}, {"lat": 44.6947551, "id": 705, "category": "default", "name": "Wild Hops Beershop", "lon": 10.6143178, "created_on": 1380283203}, {"lat": 37.9885981, "id": 706, "category": "default", "name": "\u03a4\u03c3\u03b1\u03ba\u03bf\u03cd\u03bc\u03b7 \u0395\u03cd\u03c6\u03b7 - \u0394\u03b9\u03ba\u03b7\u03b3\u03bf\u03c1\u03b9\u03ba\u03cc \u03b3\u03c1\u03b1\u03c6\u03b5\u03af\u03bf", "lon": 23.7493575, "created_on": 1380302723}, {"lat": 34.105369, "id": 723, "category": "default", "name": "Rudimental Rentals", "lon": -118.3188971, "created_on": 1380986337}, {"lat": 40.1791364, "id": 708, "category": "lodging", "name": "Hotel Nabia", "lon": -5.2883757, "created_on": 1380322634}, {"lat": 43.5129491, "id": 709, "category": "lodging", "name": "La Casona del Piquero", "lon": -5.2699023, "created_on": 1380518954}, {"lat": 43.0100332, "id": 710, "category": "transport", "name": "Taxi - Euro Galicia", "lon": -7.5571078, "created_on": 1380520575}, {"lat": 37.2540015, "id": 711, "category": "grocery", "name": "La Gamba Del Sur", "lon": -6.9545928, "created_on": 1380521258}, {"lat": 37.3975479, "id": 712, "category": "default", "name": "OTORRINO A DOMICILIO - DR. LUIS FIDEL NIETO HERN\u00c1NDEZ", "lon": -5.9980953, "created_on": 1380521768}, {"lat": 54.7348373, "id": 713, "category": "default", "name": "Jazzexpress", "lon": 25.2342783, "created_on": 1380527473}, {"lat": 39.5661591, "id": 714, "category": "default", "name": "Velero Rafael Verdera", "lon": 2.6309265, "created_on": 1380592804}, {"lat": 38.0324301, "id": 715, "category": "default", "name": "Biodiesel - eFuels", "lon": -1.0418774, "created_on": 1380609083}, {"lat": 41.831892, "id": 717, "category": "default", "name": "Casa Rural Valdean Demagico", "lon": -3.528379, "created_on": 1380657640}, {"lat": 42.1297054, "id": 718, "category": "default", "name": "La Hornera", "lon": -3.5679748, "created_on": 1380657959}, {"lat": 42.355516, "id": 707, "category": "default", "name": "Free Software Foundation", "lon": -71.0587849, "created_on": 1380310285}, {"lat": -26.8200008, "id": 720, "category": "food", "name": "Ch\u00e9! Pizza", "lon": -65.1958392, "created_on": 1380815832}, {"lat": -27.7802109, "id": 721, "category": "default", "name": "Caskal Web - Dise\u00f1o web / gr\u00e1fico", "lon": -64.2641814, "created_on": 1380816299}, {"lat": -36.7725476, "id": 722, "category": "shopping", "name": "Kriotec", "lon": -59.8647687, "created_on": 1380817288}, {"lat": 45.5595017, "id": 724, "category": "nightlife", "name": "Zo\u00e9 Fondues & Karaoke - SupperClub", "lon": -73.5975114, "created_on": 1412043072}, {"lat": 52.4926854, "id": 725, "category": "cafe", "name": "Floor's", "lon": 13.4212317, "created_on": 1380904592}, {"lat": 40.4117521, "id": 726, "category": "default", "name": "Map Asociados", "lon": -3.6555852, "created_on": 1380998618}, {"lat": 40.3998387, "id": 727, "category": "food", "name": "Spices Cave", "lon": -3.6469963, "created_on": 1380998722}, {"lat": 53.0214682, "id": 728, "category": "default", "name": "Ko\u0142o Naukowe PROGRES", "lon": 18.5709015, "created_on": 1381064726}, {"lat": 53.1283428, "id": 729, "category": "default", "name": "Satoshi.pl - Szkolenia i Consulting", "lon": 17.9935681, "created_on": 1381065016}, {"lat": 50.6681778, "id": 730, "category": "default", "name": "NVW Studio", "lon": 17.9222346, "created_on": 1381066597}, {"lat": 45.8907467, "id": 731, "category": "food", "name": "Ristorante Novecento dell'Hotel Rovereto", "lon": 11.0378482, "created_on": 1421666877}, {"lat": 52.2513084, "id": 732, "category": "default", "name": "michalczyk.pro - serwery dedykowane, administracja GNU/Linux, kolokacja, -20% przy p\u0142atno\u015bci BTC", "lon": 20.9268929, "created_on": 1381149138}, {"lat": 52.2348753, "id": 733, "category": "default", "name": "Acousticity", "lon": 20.9595904, "created_on": 1381151066}, {"lat": 40.3169735, "id": 734, "category": "default", "name": "Juguet Erotico", "lon": -3.7918931, "created_on": 1381200415}, {"lat": 36.0130368, "id": 735, "category": "default", "name": "ZAS Tarifa", "lon": -5.6044895, "created_on": 1381236749}, {"lat": 45.5368, "id": 736, "category": "default", "name": "Studio legale Valeri & Marini", "lon": 10.212537, "created_on": 1381254365}, {"lat": -31.4148338, "id": 693, "category": "lodging", "name": "Hotel Garden", "lon": -64.1831642, "created_on": 1380063171}, {"lat": 34.6804053485628, "id": 8445, "category": "shopping", "name": "Seraphim Blueprint Healing", "lon": 135.776209831238, "created_on": 1471262831}, {"lat": 41.9210226, "id": 739, "category": "lodging", "name": "Hotel Copped\u00e8", "lon": 12.5067384, "created_on": 1381314819}, {"lat": 49.2632495, "id": 755, "category": "default", "name": "Old Ginger Restaurant", "lon": -123.1154638, "created_on": 1381789360}, {"lat": -34.5870861, "id": 741, "category": "lodging", "name": "Prodeo Hotel + Lounge", "lon": -58.4346796, "created_on": 1381400030}, {"lat": 48.1450196, "id": 742, "category": "default", "name": "Malografia Printing", "lon": 17.1264625, "created_on": 1381419193}, {"lat": 40.3415709, "id": 743, "category": "default", "name": "Prevencionsiglo21", "lon": -3.862689, "created_on": 1381426740}, {"lat": 40.3010543, "id": 745, "category": "shopping", "name": "Talleres Hnos. Garc\u00eda - Mechanic", "lon": -3.4605036, "created_on": 1381515366}, {"lat": 40.3139126, "id": 746, "category": "shopping", "name": "Rebel Yell \u2013 Accesorios para motos", "lon": -3.4617695, "created_on": 1381515494}, {"lat": 40.4122031, "id": 747, "category": "default", "name": "Doctor Fernando Caudevilla", "lon": -3.6937533, "created_on": 1381515752}, {"lat": 40.4176655, "id": 748, "category": "default", "name": "BTC Hispano", "lon": -3.697709, "created_on": 1381515929}, {"lat": 41.462479, "id": 750, "category": "default", "name": "The Figure Ground Studio, LLC", "lon": -71.3912112, "created_on": 1381521122}, {"lat": 40.6738326, "id": 752, "category": "food", "name": "Aperitivo Cafe", "lon": -73.9822047, "created_on": 1385815521}, {"lat": 40.6781573, "id": 753, "category": "lodging", "name": "Holiday Inn Express Brooklyn", "lon": -73.9844338, "created_on": 1406960456}, {"lat": 27.9581894, "id": 759, "category": "default", "name": "Supreme Writing Service", "lon": -82.4401794, "created_on": 1382199460}, {"lat": 52.4910541, "id": 754, "category": "default", "name": "Sven H\u00f6hne, Dipl.-Ing. Architekt + Designer", "lon": 13.4240061, "created_on": 1381693200}, {"lat": 43.6507933, "id": 760, "category": "default", "name": "Coinkite", "lon": -79.39657, "created_on": 1381768026}, {"lat": 40.3747232, "id": 756, "category": "default", "name": "SlackStone", "lon": -3.6485303, "created_on": 1381762562}, {"lat": 40.4289244, "id": 757, "category": "default", "name": "Mimetix - soluciones digitales", "lon": -3.7298098, "created_on": 1381762885}, {"lat": 10.4921664, "id": 758, "category": "shopping", "name": "Nueva Chacao", "lon": -66.8583326, "created_on": 1415777197}, {"lat": 36.1704451, "id": 768, "category": "default", "name": "SynShop Hackerspace", "lon": -115.141532, "created_on": 1382097316}, {"lat": 45.5039005, "id": 749, "category": "default", "name": "The Figure Ground Studio, LLC", "lon": -122.6507978, "created_on": 1381520832}, {"lat": 55.6775841, "id": 761, "category": "default", "name": "Sheller Consulting", "lon": 12.606048, "created_on": 1381824684}, {"lat": 45.5230862, "id": 763, "category": "default", "name": "Le Go\u00fbt du Libre", "lon": -73.6039243, "created_on": 1381834903}, {"lat": 44.7060212, "id": 764, "category": "default", "name": "Market Opportunities", "lon": 10.6192774, "created_on": 1381850419}, {"lat": 44.6963043, "id": 765, "category": "shopping", "name": "Unity Store", "lon": 10.6301944, "created_on": 1381852206}, {"lat": 52.4571043, "id": 767, "category": "grocery", "name": "aROHma", "lon": 13.3279766, "created_on": 1381859453}, {"lat": 34.1882539, "id": 769, "category": "default", "name": "Tax Men PS", "lon": -118.4489442, "created_on": 1382131585}, {"lat": 28.5428705, "id": 770, "category": "default", "name": "MediaStormPro | Digital Media Production", "lon": -81.3789261, "created_on": 1382132541}, {"lat": 34.1051043, "id": 777, "category": "default", "name": "Pacific Brewing Supplies", "lon": -117.8068616, "created_on": 1382333925}, {"lat": 51.5566701, "id": 771, "category": "default", "name": "Guitar Theory Revolution", "lon": -0.1785466, "created_on": 1382143430}, {"lat": -34.5289014, "id": 772, "category": "default", "name": "ALPINARSUB Escuela de Buceo", "lon": -58.5228178, "created_on": 1382300698}, {"lat": -34.5809181, "id": 773, "category": "shopping", "name": "HitsMakers \u2013 Productora Musical", "lon": -58.4405048, "created_on": 1382300698}, {"lat": -34.598036, "id": 775, "category": "shopping", "name": "Lul\u00fa Babies & Kids", "lon": -58.418843, "created_on": 1382300699}, {"lat": 38.5419735, "id": 778, "category": "food", "name": "Pollo Expresss", "lon": -0.1272174, "created_on": 1382442843}, {"lat": -30.5137112, "id": 740, "category": "default", "name": "Bitcoin Gift Cards", "lon": 151.6668656, "created_on": 1381384082}, {"lat": 42.8833039, "id": 738, "category": "nightlife", "name": "Bar La Pastilla Roja", "lon": -8.542711, "created_on": 1381307073}, {"lat": 41.9871563132819, "id": 8233, "category": "default", "name": "English Girona", "lon": 2.82495081424713, "created_on": 1466089544}, {"lat": 45.4720075, "id": 781, "category": "default", "name": "H2O Store Italia", "lon": 8.8803802, "created_on": 1382445162}, {"lat": 36.7212841, "id": 782, "category": "default", "name": "Telepienso", "lon": -4.4212649, "created_on": 1382461810}, {"lat": 36.7224679, "id": 783, "category": "default", "name": "Clases de Salsa en Malaga", "lon": -4.4831773, "created_on": 1382461989}, {"lat": 36.7283489, "id": 784, "category": "default", "name": "Dr Pet", "lon": -4.5326313, "created_on": 1382462200}, {"lat": 50.0793836, "id": 785, "category": "default", "name": "Locus Workspace - Krakovsk\u00e1 | Coworkingov\u00e9 centrum", "lon": 14.4285913, "created_on": 1382469186}, {"lat": -34.7082214, "id": 786, "category": "default", "name": "MPG Servicios audiovisuales", "lon": -58.2792499, "created_on": 1382791177}, {"lat": 37.852255, "id": 794, "category": "default", "name": "Left Coast Acupuncture", "lon": -122.2604404, "created_on": 1382721744}, {"lat": 51.2325916, "id": 790, "category": "default", "name": "Camper-Verhuur.be", "lon": 4.8290619, "created_on": 1382603526}, {"lat": 45.4758668, "id": 791, "category": "default", "name": "Adam Atlas Attorney at Law", "lon": -73.6227128, "created_on": 1382624134}, {"lat": -34.626313, "id": 792, "category": "default", "name": "Iofi Racks", "lon": -58.415925, "created_on": 1382639239}, {"lat": -34.6195589, "id": 793, "category": "grocery", "name": "Aceite de Oliva", "lon": -58.3948677, "created_on": 1382639439}, {"lat": 27.9753888, "id": 796, "category": "default", "name": "TrueTobacco.com", "lon": -82.7080388, "created_on": 1382663724}, {"lat": 44.6395757, "id": 811, "category": "default", "name": "Wolf Butler Art and Software", "lon": -63.628217, "created_on": 1382982335}, {"lat": 40.4783395, "id": 799, "category": "lodging", "name": "Not Another Hostel", "lon": -79.9556731, "created_on": 1383058111}, {"lat": -26.9899268, "id": 797, "category": "lodging", "name": "Apto 703", "lon": -48.6348655, "created_on": 1382733466}, {"lat": 32.7490147, "id": 800, "category": "default", "name": "Conscious Cookery", "lon": -117.149549, "created_on": 1382751038}, {"lat": 42.7856734, "id": 802, "category": "cafe", "name": "2894 On Main", "lon": -88.4057673, "created_on": 1382766997}, {"lat": 33.1801628, "id": 812, "category": "food", "name": "Spirito's Italian Diner", "lon": -117.3250359, "created_on": 1383016300}, {"lat": 30.0457704, "id": 801, "category": "default", "name": "Egypt Bitcoins", "lon": 31.2041889, "created_on": 1382984328}, {"lat": 38.9425019, "id": 817, "category": "food", "name": "Oriental Bistro and Grill", "lon": -95.2532424, "created_on": 1395352811}, {"lat": 47.0753934, "id": 803, "category": "default", "name": "spektral", "lon": 15.4331594, "created_on": 1407761355}, {"lat": 47.0696996, "id": 804, "category": "grocery", "name": "Gem\u00fcsewerkstatt", "lon": 15.4511329, "created_on": 1382883413}, {"lat": -34.5928531, "id": 805, "category": "default", "name": "Gramot\u00e9cnica - Trefilaci\u00f3n de tubos capilares", "lon": -58.4657936, "created_on": 1382913100}, {"lat": -34.6722027, "id": 806, "category": "default", "name": "Silvina Otero Carteras", "lon": -58.5299743, "created_on": 1382913393}, {"lat": -38.2583465, "id": 807, "category": "lodging", "name": "Estancia El Lugar", "lon": -57.8674872, "created_on": 1382913840}, {"lat": 34.6456034, "id": 808, "category": "default", "name": "layer1gfx graphic design", "lon": 135.5017207, "created_on": 1382946371}, {"lat": 32.6552991, "id": 809, "category": "default", "name": "Persian Shoes", "lon": 51.667183, "created_on": 1382957723}, {"lat": 40.727416, "id": 789, "category": "default", "name": "SGC-Hosting", "lon": -73.444239, "created_on": 1382791216}, {"lat": -43.3129281, "id": 814, "category": "shopping", "name": "L\u2032Ery Showroom", "lon": -65.0406859, "created_on": 1383108860}, {"lat": -43.2569401, "id": 815, "category": "grocery", "name": "Papelera Pailacura", "lon": -65.3174941, "created_on": 1383109098}, {"lat": 39.5790874, "id": 816, "category": "default", "name": "AirStocking Espa\u00f1a", "lon": 2.6318245, "created_on": 1383127312}, {"lat": 50.9758873, "id": 818, "category": "default", "name": "Riley & Silver", "lon": -3.2545393, "created_on": 1383579633}, {"lat": 51.4631118, "id": 819, "category": "default", "name": "Zahnarztpraxis Dr. Andreas Schn\u00e4ckel / Dr. Andreas Schn\u00e4ckel, Dentist", "lon": 11.0731673, "created_on": 1383139016}, {"lat": 46.2177586, "id": 820, "category": "grocery", "name": "Torte \u0160pela", "lon": 14.3741148, "created_on": 1383139411}, {"lat": 50.9280734, "id": 821, "category": "default", "name": "Dokter Anseeuw", "lon": 5.3311549, "created_on": 1383145956}, {"lat": 52.3901816, "id": 822, "category": "default", "name": "Peperhuis.nl", "lon": 4.8790378, "created_on": 1383150742}, {"lat": -33.7079302, "id": 795, "category": "default", "name": "Seagull Photography", "lon": 151.1023511, "created_on": 1382657727}, {"lat": -34.8500858, "id": 780, "category": "shopping", "name": "Tierra Buena Delivery", "lon": -58.0863623, "created_on": 1382385332}, {"lat": 45.8859381251441, "id": 8234, "category": "default", "name": "Avvocato Alberto Falzoni", "lon": 12.2981321811676, "created_on": 1466092626}, {"lat": 46.1997280686486, "id": 8456, "category": "lodging", "name": "La Muse Bouge Coworking space", "lon": 6.13922774791718, "created_on": 1471951703}, {"lat": 28.0090597, "id": 836, "category": "default", "name": "R. Jason Cronk, Esquire", "lon": -82.1382488, "created_on": 1383172688}, {"lat": 52.2542616, "id": 835, "category": "default", "name": "Compu911", "lon": -113.7648209, "created_on": 1383171993}, {"lat": 52.3814444567595, "id": 14684, "category": "default", "name": "All Crypto Whitepapers", "lon": 4.63591396808624, "created_on": 1534776476}, {"lat": -31.437766, "id": 828, "category": "grocery", "name": "Mercadito Natural", "lon": -64.1422711, "created_on": 1383164468}, {"lat": 47.4400603, "id": 830, "category": "lodging", "name": "G\u00eete TerreCiel", "lon": -70.4998465, "created_on": 1383164848}, {"lat": -34.288526, "id": 831, "category": "default", "name": "Dep\u00f3sito San Mart\u00edn SRL", "lon": -59.1009446, "created_on": 1383165221}, {"lat": -34.7519717, "id": 832, "category": "shopping", "name": "Vivero El Potro SRL", "lon": -58.1883493, "created_on": 1383165738}, {"lat": -34.6657642, "id": 833, "category": "default", "name": "Saku Anime Store", "lon": -58.3633386, "created_on": 1383165942}, {"lat": 40.7028886, "id": 837, "category": "default", "name": "Adler, Vermillion & Skocilich LLP", "lon": -73.9903779, "created_on": 1383561271}, {"lat": 49.280759, "id": 842, "category": "atm", "name": "Bitcoin ATM - Waves Coffee", "lon": -123.1224298, "created_on": 1383560752}, {"lat": 33.8035646, "id": 838, "category": "shopping", "name": "Mixed Tees", "lon": -117.8663178, "created_on": 1383255053}, {"lat": 37.7560379, "id": 851, "category": "default", "name": "Dobbins Affordable Chiropractic", "lon": -122.2342, "created_on": 1383515538}, {"lat": 34.018135, "id": 861, "category": "default", "name": "Tiny Wren Press;The Flower Lab", "lon": -118.491346, "created_on": 1383686019}, {"lat": 55.0521824, "id": 839, "category": "default", "name": "Phoenix PCs", "lon": -1.4670449, "created_on": 1383211673}, {"lat": 52.9437704, "id": 840, "category": "default", "name": "Darley Tech Ltd", "lon": -1.4786134, "created_on": 1383234448}, {"lat": 1.302049, "id": 841, "category": "shopping", "name": "PREP", "lon": 103.836605, "created_on": 1383290603}, {"lat": 48.4286184, "id": 854, "category": "shopping", "name": "CAVITY Curiosity Shop", "lon": -123.3675316, "created_on": 1383540726}, {"lat": 51.3846254, "id": 843, "category": "shopping", "name": "Some Odd Pages", "lon": -0.504468, "created_on": 1383336319}, {"lat": -34.5991406, "id": 844, "category": "shopping", "name": "VisualMarketing", "lon": -58.4024736, "created_on": 1383338919}, {"lat": 50.0755093, "id": 846, "category": "attraction", "name": "Mate\u0159sk\u00e1 \u0161kola F\u00ed\u010dek", "lon": 14.252269, "created_on": 1383462021}, {"lat": 3.1275954, "id": 847, "category": "default", "name": "Nook Bangsar", "lon": 101.6742163, "created_on": 1383559553},